name,food_category,naver_category,address,operating_hours,phone_number,catch_table_reservable,latitude,longitude,naver_place_id,naver_link,memo,source
라멘모토,일식,일본식라면,서울 서초구 신반포로 325 1층,,0507-1346-2370,false,37.5106609,127.0192526,20550982,https://map.naver.com/p/entry/place/20550982,츠케멘,naver_shared_folder:맛집1(서울)
거대곰탕 서초점,한식,"곰탕,설렁탕",서울 서초구 사임당로 157 B1층 B102호,,02-583-7770,false,37.4924723,127.026839,2081289739,https://map.naver.com/p/entry/place/2081289739,,naver_shared_folder:맛집1(서울)
남도보쌈파전,한식,한식,"서울 동대문구 장한로 160 대진빌딩 1층, 남도보쌈파전",,0507-1327-3236,false,37.5746648,127.0722887,1055934431,https://map.naver.com/p/entry/place/1055934431,,naver_shared_folder:맛집1(서울)
마마리마켓,한식,한식,서울 성동구 연무장18길 16 1층 마마리마켓,,0507-1383-2163,false,37.5393358,127.0620111,1696863258,https://map.naver.com/p/entry/place/1696863258,,naver_shared_folder:맛집1(서울)
마이니치라멘 삼성니보시점,일식,일본식라면,서울 강남구 봉은사로63길 7 A동 102호,,0507-1400-3323,false,37.5119318,127.0469878,1709306398,https://map.naver.com/p/entry/place/1709306398,,naver_shared_folder:맛집1(서울)
금통화로구이,한식,"육류,고기요리",서울 성북구 종암로22길 12-18 1층,,02-918-9292,false,37.5993622,127.0350781,18913565,https://map.naver.com/p/entry/place/18913565,"황태구이, 차돌된장",naver_shared_folder:맛집1(서울)
서가네식탁,중식,중식당,서울 강서구 곰달래로53가길 3,,0507-1352-9313,false,37.5336428,126.8591147,1663265247,https://map.naver.com/p/entry/place/1663265247,"간자장, 볶음짬뽕",naver_shared_folder:맛집1(서울)
홍명,중식,중식당,서울 강남구 논현로131길 10 미현빌딩 1층 홍명,,02-548-2223,false,37.514514,127.0295105,18505540,https://map.naver.com/p/entry/place/18505540,간자장,naver_shared_folder:맛집1(서울)
당가원,중식,중식당,서울 마포구 월드컵북로 173 1층 당가원,,02-302-8186,false,37.5673732,126.9092997,1678755994,https://map.naver.com/p/entry/place/1678755994,짬뽕 간짜장,naver_shared_folder:맛집1(서울)
카츠디나인 신대방삼거리 본점,일식,돈가스,서울 동작구 국사봉1길 12-5 1층,,0507-1307-4150,false,37.4985132,126.9292373,1102241191,https://map.naver.com/p/entry/place/1102241191,,naver_shared_folder:맛집1(서울)
이츠야,레스토랑,돈가스,서울 마포구 양화로6길 99-9,,02-336-9244,false,37.5487338,126.9199539,1954904928,https://map.naver.com/p/entry/place/1954904928,,naver_shared_folder:맛집1(서울)
브네,술집,와인,서울 광진구 군자로 70 106호 VENEZ 브네,,0507-1307-5794,false,37.5489039,127.0710627,1580083114,https://map.naver.com/p/entry/place/1580083114,,naver_shared_folder:맛집1(서울)
모루카츠,일식,돈가스,"서울 종로구 종로 19 르메이에르 지하1층 117-1(홀), 116-1(배달)",,070-4027-4963,false,37.5710372,126.9796639,1352913596,https://map.naver.com/p/entry/place/1352913596,,naver_shared_folder:맛집1(서울)
빼누카츠,일식,돈가스,서울 관악구 청룡길 20 1층 빼누카츠,,0507-1432-9894,false,37.4808849,126.9459889,1202495197,https://map.naver.com/p/entry/place/1202495197,,naver_shared_folder:맛집1(서울)
콘반,일식,일식당,서울 동대문구 한천로26길 48-12 듀펠센터 1층,,0507-1316-3903,false,37.5706113,127.0679701,1024555085,https://map.naver.com/p/entry/place/1024555085,,naver_shared_folder:맛집1(서울)
톤제,레스토랑,돈가스,서울 성북구 보문로30라길 3 1층,,0507-1390-8993,false,37.5899876,127.0195913,1194465602,https://map.naver.com/p/entry/place/1194465602,,naver_shared_folder:맛집1(서울)
휴돈정,레스토랑,돈가스,서울 노원구 동일로191가길 6 104호,,0507-1432-5889,false,37.6252595,127.0716898,1316857053,https://map.naver.com/p/entry/place/1316857053,,naver_shared_folder:맛집1(서울)
훈타,레스토랑,돈가스,서울 강서구 곰달래로26길 15 1층 104호 검정한문간판,,0507-1457-9046,false,37.5299784,126.8494271,1630549459,https://map.naver.com/p/entry/place/1630549459,,naver_shared_folder:맛집1(서울)
오레노라멘 본점,일식,일본식라면,서울 마포구 독막로8길 16 1층 오레노라멘,,0507-1375-3539,false,37.5472577,126.9177893,814481697,https://map.naver.com/p/entry/place/814481697,토리파이탄,naver_shared_folder:맛집1(서울)
산청숯불가든 을지로,한식,"육류,고기요리",서울 중구 을지로 114-6 1층,,02-2273-8188,false,37.5658389,126.9906186,1850187827,https://map.naver.com/p/entry/place/1850187827,,naver_shared_folder:맛집1(서울)
돈까스전원,일식,돈가스,서울 성동구 왕십리로 330-6 1층 돈까스전원,,0507-1346-7104,false,37.5629362,127.0334688,1233112165,https://map.naver.com/p/entry/place/1233112165,,naver_shared_folder:맛집1(서울)
이이네,일식,일식당,서울 용산구 소월로2길 13 지하1층 이이네(요아정 오른쪽길입구),,0507-1420-9787,false,37.5543371,126.9767423,965428244,https://map.naver.com/p/entry/place/965428244,,naver_shared_folder:맛집1(서울)
무교동북어국집,레스토랑,해장국,서울 중구 을지로1길 38,,02-777-3891,false,37.5677548,126.9798583,11619941,https://map.naver.com/p/entry/place/11619941,,naver_shared_folder:맛집1(서울)
포하임 선릉점,레스토랑,베트남음식,서울 강남구 선릉로 424 2층 6호,,0507-1315-4351,false,37.5029179,127.0500875,1267112584,https://map.naver.com/p/entry/place/1267112584,,naver_shared_folder:맛집1(서울)
옛날할머니분식,한식,떡볶이,서울 중랑구 중랑역로 14-1 1층,,02-496-2130,false,37.5955222,127.0765887,1825526846,https://map.naver.com/p/entry/place/1825526846,,naver_shared_folder:맛집1(서울)
The 맛나곱창,레스토랑,"곱창,막창,양",서울 노원구 동일로 1106 1층,,02-948-5453,false,37.6288221,127.0719511,37032075,https://map.naver.com/p/entry/place/37032075,,naver_shared_folder:맛집1(서울)
담택,일식,일본식라면,서울 마포구 동교로12안길 51 1층,,0507-1347-4561,false,37.5544749,126.9151547,1068351637,https://map.naver.com/p/entry/place/1068351637,,naver_shared_folder:맛집1(서울)
테이블포포,양식,이탈리아음식,"서울 용산구 대사관로31길 25-12 5층, 테이블포포",,0507-1365-6832,false,37.5346781,127.0052443,20561198,https://map.naver.com/p/entry/place/20561198,,naver_shared_folder:맛집1(서울)
대성갈비,한식,"육류,고기요리",서울 성동구 상원1길 26 서울숲 A타워 101호~103호,,02-464-3012,false,37.5464113,127.0482346,11398664,https://map.naver.com/p/entry/place/11398664,,naver_shared_folder:맛집1(서울)
왕포수산,레스토랑,생선회,"서울 서대문구 거북골로 8 1,2층",,02-395-6663,false,37.5811823,126.9261622,1311765086,https://map.naver.com/p/entry/place/1311765086,,naver_shared_folder:맛집1(서울)
최영희언양불고기,한식,"육류,고기요리",서울 성동구 무학봉28길 21 경남빌딩,,02-2294-6077,false,37.5615805,127.034148,31329502,https://map.naver.com/p/entry/place/31329502,,naver_shared_folder:맛집1(서울)
원보양꼬치 건대본점,중식,양꼬치,서울 광진구 동일로18길 23,,02-467-7771,false,37.5398077,127.0642696,20502394,https://map.naver.com/p/entry/place/20502394,볶음밥,naver_shared_folder:맛집1(서울)
동천홍 논현점,중식,중식당,서울 강남구 논현로150길 18 삼호빌딩,,0507-1396-8885,false,37.5193098,127.0300182,32260586,https://map.naver.com/p/entry/place/32260586,볶음밥,naver_shared_folder:맛집1(서울)
임병주산동칼국수,한식,"칼국수,만두",서울 서초구 강남대로37길 65,,02-3473-7972,false,37.4845716,127.0300034,1420055829,https://map.naver.com/p/entry/place/1420055829,,naver_shared_folder:맛집1(서울)
할매집,한식,한식,서울 종로구 사직로12길 1-5,,02-735-2608,false,37.5756601,126.9714754,19489992,https://map.naver.com/p/entry/place/19489992,,naver_shared_folder:맛집1(서울)
농민백암순대 본점,레스토랑,"순대,순댓국",서울 강남구 선릉로86길 40-4 1층,,02-555-9603,false,37.5037,127.0530139,13149768,https://map.naver.com/p/entry/place/13149768,,naver_shared_folder:맛집1(서울)
몽탄,한식,"육류,고기요리",서울 용산구 백범로99길 50,,0507-1418-8592,false,37.5360103,126.97225,1810277002,https://map.naver.com/p/entry/place/1810277002,우대갈비 트러플계란찜,naver_shared_folder:맛집1(서울)
헤키,일식,돈가스,서울 마포구 동교로9길 33 1층 헤키,,070-7773-9870,false,37.5552383,126.9097924,1532303105,https://map.naver.com/p/entry/place/1532303105,히레카츠,naver_shared_folder:맛집1(서울)
마쯔무라돈까스 본점,일식,돈가스,서울 도봉구 노해로63길 84 지하1층,,02-990-9801,false,37.652787,127.046556,11686105,https://map.naver.com/p/entry/place/11686105,,naver_shared_folder:맛집1(서울)
진주회관,레스토랑,국수,서울 중구 세종대로11길 26,,02-753-5388,false,37.5623209,126.974513,11679660,https://map.naver.com/p/entry/place/11679660,,naver_shared_folder:맛집1(서울)
카와카츠 본점,일식,돈가스,서울 마포구 동교로 126 1층 102호,,0507-1415-2064,false,37.5547362,126.9161059,1924306900,https://map.naver.com/p/entry/place/1924306900,,naver_shared_folder:맛집1(서울)
정돈 대학로본점,레스토랑,돈가스,서울 종로구 대학로9길 12 지층,,0507-1408-0924,false,37.5818016,127.0011237,37126807,https://map.naver.com/p/entry/place/37126807,,naver_shared_folder:맛집1(서울)
애성회관한우곰탕,한식,"곰탕,설렁탕",서울 중구 남대문로5길 23 세창빌딩 1층,,02-352-0303,false,37.5624499,126.9789139,32770171,https://map.naver.com/p/entry/place/32770171,한우수육,naver_shared_folder:맛집1(서울)
태화루,중식,중식당,서울 중구 퇴계로50길 37,,02-2266-2876,false,37.5610168,127.001133,1700640711,https://map.naver.com/p/entry/place/1700640711,,naver_shared_folder:맛집1(서울)
대성각,중식,중식당,서울 강서구 양천로30길 32,,02-3661-9483,false,37.571801,126.822598,32096619,https://map.naver.com/p/entry/place/32096619,"간자장, 볶음밥",naver_shared_folder:맛집1(서울)
풍년뼈다귀해장국,레스토랑,해장국,서울 송파구 가락로 94,,02-415-0631,false,37.5007409,127.1066239,20630935,https://map.naver.com/p/entry/place/20630935,,naver_shared_folder:맛집1(서울)
고미태,일식,일식당,서울 마포구 월드컵로 41 1층 고미태,,,false,37.5529842,126.9118914,1559943764,https://map.naver.com/p/entry/place/1559943764,"카모시오라멘  :  no.1, 계절면요리, 상시메뉴없음, 마감빠름",naver_shared_folder:맛집1(서울)
크레이지카츠,일식,돈가스,"서울 마포구 포은로2나길 44 , 2층",,0507-1404-7219,false,37.5504385,126.9097576,38555759,https://map.naver.com/p/entry/place/38555759,특로스,naver_shared_folder:맛집1(서울)
유즈라멘,일식,일본식라면,서울 중구 만리재로 217,,070-4177-0365,false,37.5568411,126.9682545,1539185460,https://map.naver.com/p/entry/place/1539185460,,naver_shared_folder:맛집1(서울)
일월카츠 계동점,일식,돈가스,서울 종로구 계동길 17 1층 일월카츠,,0507-1339-7638,false,37.5781458,126.9865352,1965419438,https://map.naver.com/p/entry/place/1965419438,,naver_shared_folder:맛집1(서울)
오근내 닭갈비,한식,닭갈비,서울 용산구 이촌로29길 15,,02-797-0131,false,37.5245093,126.9596616,18168200,https://map.naver.com/p/entry/place/18168200,,naver_shared_folder:맛집1(서울)
오제제 광화문,일식,일식당,서울 중구 세종대로 136 지하 2층 201호 오제제,,070-4616-4653,false,37.5684246,126.9782701,1094455540,https://map.naver.com/p/entry/place/1094455540,,naver_shared_folder:맛집1(서울)
삼미당 신촌점,일식,일본식라면,서울 서대문구 연세로7길 40 1층 삼미당 신촌점,,0507-1365-6569,false,37.5578794,126.9346982,1108308342,https://map.naver.com/p/entry/place/1108308342,"시오라멘, 쇼유라멘, 탄탄멘",naver_shared_folder:맛집1(서울)
잘빠진메밀 서촌 본점,레스토랑,막국수,서울 종로구 자하문로11길 4,,0507-1403-1214,false,37.5796715,126.9709994,35135719,https://map.naver.com/p/entry/place/35135719,,naver_shared_folder:맛집1(서울)
중화요리 팔공,중식,중식당,서울 관악구 남부순환로 1680,,0507-1307-9815,false,37.4841255,126.9371352,1775787333,https://map.naver.com/p/entry/place/1775787333,자장 탕수육 간자장 유린기,naver_shared_folder:맛집1(서울)
삼선,중식,중식당,서울 성북구 삼선교로 22 1층,,0507-1358-7847,false,37.5875527,127.0083147,1658809286,https://map.naver.com/p/entry/place/1658809286,,naver_shared_folder:맛집1(서울)
진진,중식,중식당,서울 마포구 월드컵북로1길 60 1층 진진,,0507-1447-8879,false,37.5537804,126.918479,36202928,https://map.naver.com/p/entry/place/36202928,,naver_shared_folder:맛집1(서울)
황평집닭곰탕,한식,"곰탕,설렁탕",서울 중구 마른내로 74,,02-2266-6875,false,37.5640999,126.9960896,1192717326,https://map.naver.com/p/entry/place/1192717326,,naver_shared_folder:맛집1(서울)
포가,중식,중식당,서울 마포구 동교로46길 24-4 2층,,0507-1327-5901,false,37.5620264,126.9258433,1712466624,https://map.naver.com/p/entry/place/1712466624,마늘쫑면,naver_shared_folder:맛집1(서울)
원조호수삼계탕,레스토랑,"백숙,삼계탕",서울 영등포구 도림로 276 원조호수삼계탕,,0507-1419-2441,false,37.5026579,126.9043894,18674644,https://map.naver.com/p/entry/place/18674644,,naver_shared_folder:맛집1(서울)
부일숯불갈비,한식,"육류,고기요리",서울 영등포구 영중로6길 23-8,,02-2636-9462,false,37.5181466,126.9086523,18560835,https://map.naver.com/p/entry/place/18560835,,naver_shared_folder:맛집1(서울)
또순이네집,한식,소고기구이,서울 영등포구 선유로47길 16 오오1004빌딩 1~2층,,02-2672-2255,false,37.5357958,126.8953676,13017157,https://map.naver.com/p/entry/place/13017157,,naver_shared_folder:맛집1(서울)
덕원꼬리곰탕방치탕전문,한식,"곰탕,설렁탕",서울 영등포구 버드나루로6길 6,,02-2634-8663,false,37.5222629,126.9120038,19878290,https://map.naver.com/p/entry/place/19878290,,naver_shared_folder:맛집1(서울)
밍글스,한식,한식,서울 강남구 도산대로67길 19 힐탑빌딩 2층,,02-515-7306,false,37.5253845,127.0441702,35215752,https://map.naver.com/p/entry/place/35215752,,naver_shared_folder:맛집1(서울)
강동원,중식,중식당,서울 마포구 망원로 3 1층,,,false,37.5559259,126.8972947,1835965631,https://map.naver.com/p/entry/place/1835965631,"간자장, 탕수육, 덮밥/ 메뉴 나오는데 오래 걸림, 긴 웨이팅, 오픈시간 대기 40번대",naver_shared_folder:맛집1(서울)
진미반점,중식,중식당,서울 용산구 한남대로 158 1층 진미반점,,0507-1382-4225,false,37.5425463,127.0027254,35559513,https://map.naver.com/p/entry/place/35559513,탕수육 간자장,naver_shared_folder:맛집1(서울)
오토김밥 본점,한식,종합분식,서울 용산구 녹사평대로26길 93 스페이스소마빌딩 1층 오토김밥,,02-794-0110,false,37.5316212,126.9946436,37629568,https://map.naver.com/p/entry/place/37629568,닭강정,naver_shared_folder:맛집1(서울)
옹기종기감자옹심이,한식,한식,서울 구로구 서해안로30길 13-8 1층,,,false,37.4932019,126.8445054,1904170793,https://map.naver.com/p/entry/place/1904170793,,naver_shared_folder:맛집1(서울)
대장장이화덕피자,양식,피자,서울 종로구 북촌로 42-4,,0507-1315-4298,false,37.5805827,126.9853702,19877723,https://map.naver.com/p/entry/place/19877723,,naver_shared_folder:맛집1(서울)
갯마을 한강로점,한식,"칼국수,만두",서울 용산구 서빙고로 56,,02-795-2277,false,37.5230428,126.970277,18164147,https://map.naver.com/p/entry/place/18164147,,naver_shared_folder:맛집1(서울)
진주집,레스토랑,국수,서울 영등포구 국제금융로6길 33 지하 1층,,0507-1379-6108,false,37.5206924,126.9268251,11678773,https://map.naver.com/p/entry/place/11678773,,naver_shared_folder:맛집1(서울)
오향가,중식,중식당,서울 송파구 송이로 106,,02-401-6999,false,37.496729,127.121373,19500744,https://map.naver.com/p/entry/place/19500744,,naver_shared_folder:맛집1(서울)
대가방 본점,중식,중식당,서울 강남구 봉은사로 333 모아엘가 퍼스트홈 1층,,0507-1467-6336,false,37.5107214,127.0429539,11839623,https://map.naver.com/p/entry/place/11839623,,naver_shared_folder:맛집1(서울)
대관원,중식,중식당,서울 영등포구 당산로37길 1,,02-2068-8791,false,37.5294043,126.8979053,37236664,https://map.naver.com/p/entry/place/37236664,간자장 탕수육,naver_shared_folder:맛집1(서울)
엉짱윤치킨,레스토랑,"치킨,닭강정",서울 양천구 목동동로 177 1층 101호,,02-2061-9982,false,37.5216391,126.8704458,1429372651,https://map.naver.com/p/entry/place/1429372651,,naver_shared_folder:맛집1(서울)
우메돈,레스토랑,돈가스,서울 중구 충무로 31 1층,,0507-1497-3124,false,37.5640129,126.9927585,1946183790,https://map.naver.com/p/entry/place/1946183790,안심,naver_shared_folder:맛집1(서울)
알고,양식,"스파게티,파스타전문",서울 광진구 광나루로17길 10 2층,,0507-1332-2645,false,37.5480922,127.0728518,810682299,https://map.naver.com/p/entry/place/810682299,,naver_shared_folder:맛집1(서울)
성산왕갈비,한식,"육류,고기요리",서울 마포구 월드컵북로 233 성산시영아파트내 상가,,02-306-2001,false,37.5699416,126.9032687,37717563,https://map.naver.com/p/entry/place/37717563,,naver_shared_folder:맛집1(서울)
연하동 연남본점,일식,일식당,서울 마포구 연남로 6,,070-7176-6017,false,37.560509,126.9235456,1668003266,https://map.naver.com/p/entry/place/1668003266,,naver_shared_folder:맛집1(서울)
하동진,한식,국밥,서울 중구 다산로 253-1 1층,,02-2233-4888,false,37.5657781,127.0159934,1228283944,https://map.naver.com/p/entry/place/1228283944,,naver_shared_folder:맛집1(서울)
스바루,술집,"우동,소바",서울 서초구 방배중앙로21길 7 1층 스바루,,02-596-4882,false,37.4924211,126.9861405,1106627412,https://map.naver.com/p/entry/place/1106627412,,naver_shared_folder:맛집1(서울)
플레이버타운,레스토랑,아시아음식,"서울 성동구 서울숲4길 18-7 1층, 2층",,0507-1367-9954,false,37.5469832,127.0429156,1530362375,https://map.naver.com/p/entry/place/1530362375,,naver_shared_folder:맛집1(서울)
취화원,중식,중식당,서울 구로구 경인로47길 134,,02-2066-4952,false,37.5044402,126.8632456,1340908756,https://map.naver.com/p/entry/place/1340908756,,naver_shared_folder:맛집1(서울)
동산닭요리,한식,한식,서울 구로구 경인로47다길 3,,02-2687-3378,false,37.5036224,126.8640002,13150353,https://map.naver.com/p/entry/place/13150353,,naver_shared_folder:맛집1(서울)
여기래,한식,한식,서울 용산구 후암로23길 3-7,,02-755-2359,false,37.5492926,126.9773157,35664258,https://map.naver.com/p/entry/place/35664258,,naver_shared_folder:맛집1(서울)
백년옥,레스토랑,두부요리,서울 서초구 남부순환로 2407,,02-523-2860,false,37.4811951,127.0137749,11678686,https://map.naver.com/p/entry/place/11678686,,naver_shared_folder:맛집1(서울)
화곡영양족발,한식,"족발,보쌈",서울 강서구 초록마을로2길 48 1층 화곡영양족발,,0507-1319-7914,false,37.5432636,126.8434604,31689760,https://map.naver.com/p/entry/place/31689760,,naver_shared_folder:맛집1(서울)
다온카츠 연신내본점,일식,일식당,서울 은평구 연서로29길 21-11 1.5층 다온카츠,,0507-1449-9005,false,37.6189289,126.9178881,1816689066,https://map.naver.com/p/entry/place/1816689066,,naver_shared_folder:맛집1(서울)
팀호완 강남역점,중식,"딤섬,중식만두","서울 강남구 테헤란로1길 29 지하1층, 지상1층",,0507-1384-3081,false,37.5001348,127.0273678,1010110129,https://map.naver.com/p/entry/place/1010110129,,naver_shared_folder:맛집1(서울)
안동장,중식,중식당,서울 중구 을지로 124,,02-2266-3814,false,37.5661354,126.9915576,11677524,https://map.naver.com/p/entry/place/11677524,오리지널 굴짬뽕,naver_shared_folder:맛집1(서울)
엉털네숯불꼼장어 목동점,레스토랑,"해물,생선요리",서울 양천구 등촌로 34 1층,,02-2643-0244,false,37.5330721,126.8639479,13401737,https://map.naver.com/p/entry/place/13401737,,naver_shared_folder:맛집1(서울)
일일향 잠실점,중식,중식당,서울 송파구 석촌호수로 290 성우빌딩,,0507-1432-0678,false,37.51112,127.1073555,1562143331,https://map.naver.com/p/entry/place/1562143331,,naver_shared_folder:맛집1(서울)
덕수정,한식,한식,서울 중구 정동길 41,,02-755-0180,false,37.5659,126.97255,13006904,https://map.naver.com/p/entry/place/13006904,,naver_shared_folder:맛집1(서울)
충무칼국수,한식,"칼국수,만두",서울 은평구 은평로 193 2층 충무칼국수,,02-3142-3198,false,37.6017926,126.9292597,32174829,https://map.naver.com/p/entry/place/32174829,,naver_shared_folder:맛집1(서울)
대성각,중식,중식당,서울 은평구 녹번로 7 1층 대성각,,02-356-2194,false,37.603048,126.926779,18657304,https://map.naver.com/p/entry/place/18657304,,naver_shared_folder:맛집1(서울)
이한진숙성회,레스토랑,생선회,서울 강동구 구천면로 247-1,,02-476-5007,false,37.5426313,127.1311643,1093811473,https://map.naver.com/p/entry/place/1093811473,,naver_shared_folder:맛집1(서울)
청진옥,레스토랑,해장국,서울 종로구 종로3길 32,,02-735-1690,false,37.5717535,126.9794207,13544101,https://map.naver.com/p/entry/place/13544101,,naver_shared_folder:맛집1(서울)
창성옥,한식,한식,서울 용산구 새창로 124-10 1층,,02-718-2878,false,37.5363864,126.9604033,19873649,https://map.naver.com/p/entry/place/19873649,,naver_shared_folder:맛집1(서울)
용문해장국,한식,한식,"서울 용산구 효창원로 110 1층, 용문해장국 (용문동)",,02-712-6290,false,37.5379583,126.9608625,19873286,https://map.naver.com/p/entry/place/19873286,,naver_shared_folder:맛집1(서울)
이안초밥 안녕인사동점,일식,"초밥,롤","서울 종로구 인사동길 49 지상 M층 5,6번매장",,02-6949-5288,false,37.5744663,126.9835556,1636341982,https://map.naver.com/p/entry/place/1636341982,가성비,naver_shared_folder:맛집1(서울)
맛나닭가마솥치킨,레스토랑,"치킨,닭강정",서울 송파구 마천로51길 23 유니빌딩 1층,,02-449-6999,false,37.4969477,127.1522226,37249442,https://map.naver.com/p/entry/place/37249442,골뱅이소면 치킨,naver_shared_folder:맛집1(서울)
유진치킨 홍제점,레스토랑,"치킨,닭강정",서울 서대문구 세무서7길 13,,02-394-9300,false,37.5914939,126.9460886,1677226192,https://map.naver.com/p/entry/place/1677226192,"골목식당, 골뱅이",naver_shared_folder:맛집1(서울)
[휴점] 윤서울,한식,한식,서울 강남구 선릉로 805 1층,,,false,37.524135,127.038998,1698341503,https://map.naver.com/p/entry/place/1698341503,넷플 흑백요리사,naver_shared_folder:맛집1(서울)
에빗,양식,양식,서울 강남구 도산대로45길 10-5 1층 EVETT,,0507-1399-1029,false,37.5234319,127.0362071,1838135293,https://map.naver.com/p/entry/place/1838135293,넷플 흑백요리사,naver_shared_folder:맛집1(서울)
비아 톨레도 파스타바,술집,"스파게티,파스타전문",서울 용산구 원효로83길 7-2 1층,,0507-1384-0986,false,37.5400463,126.9677538,1018077796,https://map.naver.com/p/entry/place/1018077796,"만두같은파스타, 넷플 흑백요리사",naver_shared_folder:맛집1(서울)
본연,한식,한식,서울 강남구 논현로 742 7층,,0507-1434-0923,false,37.5182879,127.0292407,1308638160,https://map.naver.com/p/entry/place/1308638160,,naver_shared_folder:맛집1(서울)
남박,레스토랑,베트남음식,서울 용산구 한강대로76길 11-31,,0507-1377-9025,false,37.5422923,126.9735647,1416709100,https://map.naver.com/p/entry/place/1416709100,,naver_shared_folder:맛집1(서울)
츄르츄르라멘,일식,일본식라면,서울 용산구 청파로43길 11 1층 츄르츄르,,02-707-0410,false,37.5435886,126.9700063,1116654116,https://map.naver.com/p/entry/place/1116654116,,naver_shared_folder:맛집1(서울)
모코시야,일식,일본식라면,서울 용산구 백범로87길 50-1 1층,,0507-1398-8021,false,37.5394321,126.9694896,1204729925,https://map.naver.com/p/entry/place/1204729925,,naver_shared_folder:맛집1(서울)
퍼프룸 X 치즈룸 월드타워,양식,이탈리아음식,서울 송파구 올림픽로 300 롯데월드몰 5층,,02-3213-4550,false,37.5140522,127.1042624,36714351,https://map.naver.com/p/entry/place/36714351,,naver_shared_folder:맛집1(서울)
원스타 올드패션드 햄버거 도곡점,양식,햄버거,서울 강남구 논현로26길 23 1층,,0507-1448-4377,false,37.4828438,127.0444028,1635037172,https://map.naver.com/p/entry/place/1635037172,,naver_shared_folder:맛집1(서울)
철수네포장마차,술집,포장마차,서울 강남구 선릉로66길 8 1층,,02-569-2635,false,37.498463,127.052571,13485012,https://map.naver.com/p/entry/place/13485012,,naver_shared_folder:맛집1(서울)
돈그리아,한식,한식,서울 강남구 선릉로86길 6-5 프라임빌딩,,,false,37.5028197,127.0506413,20685143,https://map.naver.com/p/entry/place/20685143,,naver_shared_folder:맛집1(서울)
대찬횟집 선릉직영점,레스토랑,생선회,서울 강남구 선릉로86길 16-3 지하1층,,02-2051-8588,false,37.5031893,127.0513416,1027446540,https://map.naver.com/p/entry/place/1027446540,,naver_shared_folder:맛집1(서울)
반룡산,레스토랑,이북음식,서울 강남구 테헤란로78길 26 1층,,02-3446-8966,false,37.5044952,127.0558583,12053368,https://map.naver.com/p/entry/place/12053368,,naver_shared_folder:맛집1(서울)
마담밍,중식,중식당,서울 강남구 선릉로86길 5-4 1층,,02-567-6992,false,37.5035179,127.0502732,11707122,https://map.naver.com/p/entry/place/11707122,,naver_shared_folder:맛집1(서울)
현래장,중식,중식당,서울 마포구 마포대로 20 다보빌딩 지하1층 현래장,,0507-1345-0730,false,37.538375,126.9449196,13358442,https://map.naver.com/p/entry/place/13358442,옛날자장 군만두 탕수육,naver_shared_folder:맛집1(서울)
멘도무카우,일식,일본식라면,서울 마포구 동교로18길 41 1층,,0507-1328-9043,false,37.5536415,126.9180832,1948879688,https://map.naver.com/p/entry/place/1948879688,,naver_shared_folder:맛집1(서울)
마포원조떡볶이,레스토랑,떡볶이,서울 마포구 도화2길 3,,02-719-2005,false,37.5403569,126.9487607,13160207,https://map.naver.com/p/entry/place/13160207,,naver_shared_folder:맛집1(서울)
장꼬방묵은김치찌개전문,레스토랑,"찌개,전골",서울 서초구 효령로 364 장꼬방,,02-522-0035,false,37.4868563,127.0236857,11819292,https://map.naver.com/p/entry/place/11819292,가까이 있으면 자주 갈 집,naver_shared_folder:맛집1(서울)
고가길구공탄,한식,돼지고기구이,서울 용산구 백범로99길 48,,0507-1356-1675,false,37.5360986,126.9721324,35407324,https://map.naver.com/p/entry/place/35407324,,naver_shared_folder:맛집1(서울)
조대포 남영본점,한식,돼지고기구이,서울 용산구 한강대로 272-1 1층,,02-701-1060,false,37.5426096,126.9728974,18137751,https://map.naver.com/p/entry/place/18137751,,naver_shared_folder:맛집1(서울)
화양연가,한식,"육류,고기요리",서울 용산구 한강대로76길 5,,070-8950-8059,false,37.5416169,126.9734109,20034529,https://map.naver.com/p/entry/place/20034529,,naver_shared_folder:맛집1(서울)
남영돈,한식,돼지고기구이,서울 용산구 한강대로80길 17 남영돈,,0507-1351-3598,false,37.5427593,126.9738012,19774046,https://map.naver.com/p/entry/place/19774046,전국구급,naver_shared_folder:맛집1(서울)
봉메밀 문정점,레스토랑,막국수,서울 송파구 새말로5길 1 덕우빌딩,,02-401-1119,false,37.4829495,127.1245495,934505897,https://map.naver.com/p/entry/place/934505897,,naver_shared_folder:맛집1(서울)
정성,술집,한식,서울 동작구 보라매로3길 29,,,false,37.491405,126.925186,1598594902,https://map.naver.com/p/entry/place/1598594902,"제육볶음, 가성비, 매일 바뀌는 반찬",naver_shared_folder:맛집1(서울)
석교식당,한식,한식,서울 서대문구 통일로 185,,02-363-2803,false,37.5700014,126.9622884,1391058103,https://map.naver.com/p/entry/place/1391058103,,naver_shared_folder:맛집1(서울)
영화루,중식,중식당,서울 종로구 자하문로7길 65,,02-738-1218,false,37.5801579,126.969013,17898852,https://map.naver.com/p/entry/place/17898852,,naver_shared_folder:맛집1(서울)
공푸 성신여대본점,중식,중식당,서울 성북구 삼선교로24길 29,,0507-1314-4683,false,37.5888268,127.0161313,35168517,https://map.naver.com/p/entry/place/35168517,,naver_shared_folder:맛집1(서울)
정,중식,중식당,서울 용산구 청파로47나길 4 2층,,02-719-8719,false,37.5450558,126.9670537,11600155,https://map.naver.com/p/entry/place/11600155,,naver_shared_folder:맛집1(서울)
중화복춘 연남공원,중식,중식당,서울 마포구 동교로 220-7 101호,,0507-1436-2209,false,37.5595498,126.9242399,38301272,https://map.naver.com/p/entry/place/38301272,,naver_shared_folder:맛집1(서울)
부영각,중식,중식당,서울 마포구 토정로 268,,02-716-2413,false,37.5425356,126.939484,11626202,https://map.naver.com/p/entry/place/11626202,,naver_shared_folder:맛집1(서울)
돈부각,레스토랑,돈가스,서울 동대문구 왕산로 15-1 2층,,02-997-9789,false,37.5765395,127.0252796,1817240405,https://map.naver.com/p/entry/place/1817240405,,naver_shared_folder:맛집1(서울)
시키카츠 회기 본점,일식,돈가스,서울 동대문구 회기로 110 1층 시키카츠,,0507-1324-8753,false,37.5914312,127.0486763,1531767806,https://map.naver.com/p/entry/place/1531767806,,naver_shared_folder:맛집1(서울)
시키카츠 신당점,일식,돈가스,서울 중구 다산로42나길 14 1층 시키카츠,,0507-1303-8753,false,37.5638034,127.0183316,1806958297,https://map.naver.com/p/entry/place/1806958297,,naver_shared_folder:맛집1(서울)
천하보쌈,한식,"족발,보쌈",서울 종로구 창덕궁1길 8 천하보쌈,,02-744-1614,false,37.5794396,126.9888545,13575188,https://map.naver.com/p/entry/place/13575188,,naver_shared_folder:맛집1(서울)
롸카두들 내쉬빌 핫치킨 이태원점,양식,햄버거,서울 용산구 녹사평대로40나길 9 1층 롸카두들 핫치킨,,0507-1460-3460,false,37.5348941,126.9881376,1903675134,https://map.naver.com/p/entry/place/1903675134,,naver_shared_folder:맛집1(서울)
이품,중식,중식당,서울 서대문구 연희로11길 20,,02-322-6172,false,37.56755,126.9300765,19877438,https://map.naver.com/p/entry/place/19877438,,naver_shared_folder:맛집1(서울)
홍릉각,중식,중식당,서울 동대문구 약령시로 90,,02-969-7787,false,37.582893,127.039987,18043515,https://map.naver.com/p/entry/place/18043515,,naver_shared_folder:맛집1(서울)
해주냉면 본점,한식,냉면,서울 송파구 백제고분로7길 8-16,,02-424-7192,false,37.5096642,127.0798312,1920811115,https://map.naver.com/p/entry/place/1920811115,,naver_shared_folder:맛집1(서울)
동강나루터,레스토랑,"매운탕,해물탕",서울 중구 을지로 99 창신빌딩 2층,,02-2273-5989,false,37.5664523,126.9889664,18007297,https://map.naver.com/p/entry/place/18007297,,naver_shared_folder:맛집1(서울)
부타이 1막,일식,일식당,서울 강남구 테헤란로88길 22 지하1층,,02-544-8422,false,37.5061805,127.0600012,1144038812,https://map.naver.com/p/entry/place/1144038812,,naver_shared_folder:맛집1(서울)
호호식당 성수,일식,일식당,서울 성동구 서울숲4길 25,,0507-1322-2384,false,37.5471671,127.0438549,1836968731,https://map.naver.com/p/entry/place/1836968731,,naver_shared_folder:맛집1(서울)
츠키젠,일식,일식당,서울 마포구 독막로8길 23 1층,,0507-1362-1655,false,37.5468047,126.9180064,1172910030,https://map.naver.com/p/entry/place/1172910030,,naver_shared_folder:맛집1(서울)
호호식당 익선,일식,일식당,서울 종로구 익선동 170-1,,0507-1315-2384,false,37.5730235,126.9904379,1765213815,https://map.naver.com/p/entry/place/1765213815,,naver_shared_folder:맛집1(서울)
카쿠시타,술집,이자카야,서울 마포구 동교로38길 33-15 지하1층,,0507-1348-8793,false,37.5618618,126.9261811,1331305271,https://map.naver.com/p/entry/place/1331305271,,naver_shared_folder:맛집1(서울)
카미야,일식,일식당,서울 마포구 와우산로21길 28-6,,02-322-5733,false,37.5525803,126.922372,19535343,https://map.naver.com/p/entry/place/19535343,,naver_shared_folder:맛집1(서울)
정돈 강남점,레스토랑,돈가스,서울 강남구 강남대로110길 19-1 1층,,0507-1316-0924,false,37.5039195,127.0264006,1183428863,https://map.naver.com/p/entry/place/1183428863,리뷰이벤트 하는 집,naver_shared_folder:맛집1(서울)
카페나하 본점,카페,일식당,서울 마포구 희우정로16길 32 2층,,0507-1306-1632,false,37.5545496,126.9037796,666867511,https://map.naver.com/p/entry/place/666867511,,naver_shared_folder:맛집1(서울)
한성돈까스,일식,돈가스,서울 서초구 강남대로97길 10 1층 한성돈까스,,02-540-7054,false,37.5147344,127.0191428,11684597,https://map.naver.com/p/entry/place/11684597,,naver_shared_folder:맛집1(서울)
동차밥 홍대 연남 본점,일식,일식당,서울 마포구 연희로1길 57 3층,,0507-1371-1066,false,37.5614001,126.9263637,35726772,https://map.naver.com/p/entry/place/35726772,,naver_shared_folder:맛집1(서울)
오레노카츠 성수본점,일식,돈가스,서울 성동구 성수일로 47 102호,,0507-1318-9976,false,37.5448185,127.0494298,1380430757,https://map.naver.com/p/entry/place/1380430757,,naver_shared_folder:맛집1(서울)
정돈 신사점,레스토랑,돈가스,서울 강남구 강남대로160길 28,,0507-1322-0924,false,37.5198188,127.02108,148179327,https://map.naver.com/p/entry/place/148179327,,naver_shared_folder:맛집1(서울)
유야케도쿄,레스토랑,돈가스,서울 서대문구 이화여대3길 28 101호,,02-6401-7991,false,37.5580385,126.9441545,1635954043,https://map.naver.com/p/entry/place/1635954043,,naver_shared_folder:맛집1(서울)
스즈란테이,일식,일식당,서울 용산구 이촌로 245 로얄상가 지하 1층,,02-749-5324,false,37.5199701,126.9743452,31564552,https://map.naver.com/p/entry/place/31564552,,naver_shared_folder:맛집1(서울)
홍대 돈까스 혼가츠,일식,돈가스,서울 마포구 와우산로21길 36-6 1층 102호,,02-322-8850,false,37.5526649,126.9220529,34228290,https://map.naver.com/p/entry/place/34228290,,naver_shared_folder:맛집1(서울)
명동돈가스,레스토랑,돈가스,서울 중구 명동3길 8,,02-775-5300,false,37.5640479,126.983542,11679455,https://map.naver.com/p/entry/place/11679455,,naver_shared_folder:맛집1(서울)
이끼롤까스 가로수길본점,레스토랑,돈가스,서울 강남구 강남대로152길 64 지하1층,,0507-1403-3347,false,37.5187607,127.0244724,21418931,https://map.naver.com/p/entry/place/21418931,,naver_shared_folder:맛집1(서울)
온미동,일식,일식당,서울 영등포구 여의나루로 67-8 지하1층 단독호수 온미동,,0507-1383-0630,false,37.5238397,126.9261044,1845042944,https://map.naver.com/p/entry/place/1845042944,,naver_shared_folder:맛집1(서울)
초이다이닝 송파점,일식,일식당,서울 송파구 백제고분로45길 21-1 2층 초이다이닝 송파점,,0507-1312-2347,false,37.509949,127.1090094,1285247846,https://map.naver.com/p/entry/place/1285247846,,naver_shared_folder:맛집1(서울)
성수완당,한식,한식,서울 광진구 아차산로26길 13 1층,,0507-1448-5243,false,37.5407157,127.0661492,1683696846,https://map.naver.com/p/entry/place/1683696846,,naver_shared_folder:맛집1(서울)
이키이키,술집,"우동,소바",서울 양천구 목동동로14길 10 1층,,0507-1346-0736,false,37.5242033,126.8724941,1308298219,https://map.naver.com/p/entry/place/1308298219,,naver_shared_folder:맛집1(서울)
바삭마차,술집,돈가스,서울 마포구 월드컵로13길 64 바삭마차,,0507-1335-4486,false,37.5553289,126.9065291,1177971007,https://map.naver.com/p/entry/place/1177971007,,naver_shared_folder:맛집1(서울)
가츠오 교대본점,레스토랑,돈가스,서울 서초구 서초중앙로20길 21 1층 가츠오,,0507-1312-5154,false,37.4923781,127.015249,1652220988,https://map.naver.com/p/entry/place/1652220988,,naver_shared_folder:맛집1(서울)
로얄싸롱,양식,양식,서울 서대문구 연희로11가길 43 1F,,02-6956-2112,false,37.5666091,126.9278866,1952089280,https://map.naver.com/p/entry/place/1952089280,,naver_shared_folder:맛집1(서울)
응담말,한식,한식,서울 성북구 동소문로24길 20,,02-926-6762,false,37.5927837,127.0186874,18233363,https://map.naver.com/p/entry/place/18233363,,naver_shared_folder:맛집1(서울)
가양칼국수버섯매운탕,한식,한식,서울 영등포구 국제금융로 78 홍우빌딩 지하 1층,,0507-1399-0438,false,37.5208564,126.931282,11624237,https://map.naver.com/p/entry/place/11624237,,naver_shared_folder:맛집1(서울)
이세돈가스 고려대점,레스토랑,돈가스,서울 성북구 개운사길 32,,02-927-7749,false,37.5878062,127.0294177,118302079,https://map.naver.com/p/entry/place/118302079,,naver_shared_folder:맛집1(서울)
태조감자국,레스토랑,감자탕,서울 성북구 보문로34길 43 세학빌딩 1층,,02-921-7667,false,37.59078,127.01771,228291519,https://map.naver.com/p/entry/place/228291519,"가성비 좋고, 주변 감자탕집 문닫게 하는 곳",naver_shared_folder:맛집1(서울)
계열사,레스토랑,"치킨,닭강정",서울 종로구 백석동길 7,,02-391-3566,false,37.5928996,126.9656561,13488297,https://map.naver.com/p/entry/place/13488297,,naver_shared_folder:맛집1(서울)
홍복,중식,중식당,서울 중구 남대문시장길 73-3 일신빌딩 1층 - 5층,,02-755-7633,false,37.560982,126.9800814,11726524,https://map.naver.com/p/entry/place/11726524,,naver_shared_folder:맛집1(서울)
오향만두,중식,중식당,서울 서대문구 연희맛로 22 삼원빌딩,,02-326-2087,false,37.5669752,126.9301144,32875867,https://map.naver.com/p/entry/place/32875867,,naver_shared_folder:맛집1(서울)
진미,중식,중식당,서울 서대문구 연희맛로 36 1층,,02-322-8338,false,37.5679155,126.930974,1902737844,https://map.naver.com/p/entry/place/1902737844,,naver_shared_folder:맛집1(서울)
방이돈가,한식,"육류,고기요리",서울 송파구 오금로15길 4 1층,,02-415-7220,false,37.5121381,127.1092987,1839678120,https://map.naver.com/p/entry/place/1839678120,,naver_shared_folder:맛집1(서울)
오스테리아 오르조,양식,양식,서울 용산구 한남대로20길 47,,,false,37.5349161,127.0095281,1229610281,https://map.naver.com/p/entry/place/1229610281,,naver_shared_folder:맛집1(서울)
에그앤플라워,양식,"스파게티,파스타전문",서울 용산구 신흥로26길 35 2층,,0507-1328-7681,false,37.5453932,126.9844401,1937120968,https://map.naver.com/p/entry/place/1937120968,,naver_shared_folder:맛집1(서울)
히키니쿠토코메 도산,일식,일식당,서울 강남구 선릉로155길 21 2층,,02-545-1129,false,37.5254945,127.0379593,1673469154,https://map.naver.com/p/entry/place/1673469154,,naver_shared_folder:맛집1(서울)
꿈꾸는돼지 신대방삼거리역점,한식,돼지고기구이,서울 동작구 여의대방로22길 138,,070-8211-3066,false,37.4983199,126.9276496,38632423,https://map.naver.com/p/entry/place/38632423,,naver_shared_folder:맛집1(서울)
홍대 카레츠,레스토랑,돈가스,서울 마포구 월드컵로10길 15 1층,,0507-1432-0996,false,37.5547727,126.9125836,35403210,https://map.naver.com/p/entry/place/35403210,,naver_shared_folder:맛집1(서울)
띵라면,일식,라면,서울 성북구 동소문로22길 29-8,,,false,37.5918176,127.0183293,38743104,https://map.naver.com/p/entry/place/38743104,,naver_shared_folder:맛집1(서울)
소이연남,레스토랑,태국음식,서울 마포구 동교로 267 1층,,0507-1355-5130,false,37.5634777,126.9253617,35402809,https://map.naver.com/p/entry/place/35402809,,naver_shared_folder:맛집1(서울)
은평닭곰탕,한식,"곰탕,설렁탕",서울 은평구 연서로3길 5 은평닭곰탕,,0507-1360-2038,false,37.6023178,126.9152606,1138580695,https://map.naver.com/p/entry/place/1138580695,,naver_shared_folder:맛집1(서울)
만복순대국,한식,"순대,순댓국",서울 양천구 목동로 219,,02-2696-0304,false,37.5278868,126.8637333,1720988351,https://map.naver.com/p/entry/place/1720988351,고기많이달라하면줌,naver_shared_folder:맛집1(서울)
오장동함흥냉면,한식,냉면,서울 중구 마른내로 108 오장동함흥냉면,,02-2267-9500,false,37.5643246,126.9998889,19866570,https://map.naver.com/p/entry/place/19866570,,naver_shared_folder:맛집1(서울)
마포장,중식,중식당,서울 마포구 토정로 196 2층,,02-718-9655,false,37.5452291,126.9325979,13154789,https://map.naver.com/p/entry/place/13154789,가성비,naver_shared_folder:맛집1(서울)
일 베키오,양식,이탈리아음식,서울 마포구 월드컵북로 332-12 1층 일 베키오,,0507-1339-0944,false,37.576389,126.8947123,1377420027,https://map.naver.com/p/entry/place/1377420027,,naver_shared_folder:맛집1(서울)
이태리포차,술집,이탈리아음식,서울 강서구 양천로30길 32 마곡빌딩1층 이태리포차,,0507-1311-4109,false,37.5718118,126.8225969,1177405017,https://map.naver.com/p/entry/place/1177405017,,naver_shared_folder:맛집1(서울)
덕순루,중식,중식당,서울 용산구 한강대로80길 11,,02-326-1888,false,37.5426658,126.9734335,1894139697,https://map.naver.com/p/entry/place/1894139697,볶음밥,naver_shared_folder:맛집1(서울)
양자강,중식,중식당,서울 용산구 백범로 322 1층,,02-713-2718,false,37.5382386,126.9646674,18141119,https://map.naver.com/p/entry/place/18141119,,naver_shared_folder:맛집1(서울)
영화장,중식,중식당,서울 동대문구 휘경로 3-8,,02-967-9595,false,37.5965708,127.0609381,18119095,https://map.naver.com/p/entry/place/18119095,,naver_shared_folder:맛집1(서울)
시올돈 성북직영점,레스토랑,돈가스,서울 성북구 성북로5길 20 1층,,0507-1302-1581,false,37.588979,127.0040391,1429372505,https://map.naver.com/p/entry/place/1429372505,,naver_shared_folder:맛집1(서울)
북천,레스토랑,돈가스,서울 용산구 한강대로10길 17,,02-796-2461,false,37.5238751,126.9643611,36241305,https://map.naver.com/p/entry/place/36241305,,naver_shared_folder:맛집1(서울)
원흥,중식,중식당,서울 중구 다동길 46,,02-3789-3624,false,37.5678937,126.9819007,19867588,https://map.naver.com/p/entry/place/19867588,고기튀김 원툴,naver_shared_folder:맛집1(서울)
가쯔야 무교본점,레스토랑,돈가스,서울 중구 다동길 46 1층 가쯔야,,02-772-9023,false,37.567871,126.981556,18001921,https://map.naver.com/p/entry/place/18001921,,naver_shared_folder:맛집1(서울)
홍운장,중식,중식당,서울 강남구 삼성로 341 인애빌딩 1층,,02-558-3666,false,37.50194,127.058973,13371770,https://map.naver.com/p/entry/place/13371770,,naver_shared_folder:맛집1(서울)
대성반점,중식,중식당,서울 강동구 천중로15길 37,,02-484-8005,false,37.5467363,127.1282067,18920699,https://map.naver.com/p/entry/place/18920699,,naver_shared_folder:맛집1(서울)
신성각,중식,중식당,서울 마포구 임정로 55-1,,02-716-1210,false,37.544725,126.9577875,11678637,https://map.naver.com/p/entry/place/11678637,,naver_shared_folder:맛집1(서울)
oriet.oriet.oriet,양식,브런치,서울 서초구 서초대로27길 21 1층,,,false,37.489023,126.9943839,1563983365,https://map.naver.com/p/entry/place/1563983365,,naver_shared_folder:맛집1(서울)
해남원조김밥,한식,종합분식,서울 서초구 방배로 200,,02-535-6949,false,37.4912591,126.9916853,20870864,https://map.naver.com/p/entry/place/20870864,,naver_shared_folder:맛집1(서울)
우동 키누,술집,"우동,소바",서울 서초구 방배로28길 16 우동 키누,,0507-1329-5980,false,37.4903343,126.9930025,1957101205,https://map.naver.com/p/entry/place/1957101205,,naver_shared_folder:맛집1(서울)
미국식 방배본점,양식,햄버거,서울 서초구 서초대로29길 17-2 1층,,,false,37.4891668,126.9951775,1015077331,https://map.naver.com/p/entry/place/1015077331,,naver_shared_folder:맛집1(서울)
목포회센타,레스토랑,생선회,서울 관악구 남부순환로 1766,,02-877-0969,false,37.481748,126.945994,19444137,https://map.naver.com/p/entry/place/19444137,,naver_shared_folder:맛집1(서울)
산동만두,중식,중식당,서울 마포구 도화길 22-10,,02-711-3958,false,37.540027,126.9485369,13477593,https://map.naver.com/p/entry/place/13477593,,naver_shared_folder:맛집1(서울)
스시미소,일식,"초밥,롤",서울 영등포구 국회대로 750 1층 114호 스시미소,,0507-1388-7734,false,37.5282729,126.916448,1429085190,https://map.naver.com/p/entry/place/1429085190,,naver_shared_folder:맛집1(서울)
바스버거 여의도점,술집,햄버거,서울 영등포구 국제금융로 20 율촌빌딩 지하1층,,0507-1358-6643,false,37.5248824,126.9273154,37797658,https://map.naver.com/p/entry/place/37797658,,naver_shared_folder:맛집1(서울)
모토쿠라시,술집,이자카야,서울 송파구 백제고분로41길 27 202호 나무문,,0507-1318-6327,false,37.5082612,127.1066245,1116229050,https://map.naver.com/p/entry/place/1116229050,,naver_shared_folder:맛집1(서울)
진지아,중식,중식당,"서울 송파구 백제고분로41길 12-9 1층, 2층",,0507-1317-5356,false,37.5075891,127.1082625,1214154710,https://map.naver.com/p/entry/place/1214154710,,naver_shared_folder:맛집1(서울)
유가,중식,중식당,서울 중구 퇴계로12길 68,,02-3789-9688,false,37.5566901,126.9814671,868705283,https://map.naver.com/p/entry/place/868705283,,naver_shared_folder:맛집1(서울)
안동반점,중식,중식당,서울 성북구 고려대로1길 35-1,,02-923-4448,false,37.5870582,127.018948,1205234878,https://map.naver.com/p/entry/place/1205234878,볶음밥,naver_shared_folder:맛집1(서울)
히노야마,일식,일식당,서울 양천구 목동서로 349 센트럴프라자 119호,,0507-1305-8667,false,37.5172332,126.8652391,36771856,https://map.naver.com/p/entry/place/36771856,,naver_shared_folder:맛집1(서울)
우래옥,한식,냉면,서울 중구 창경궁로 62-29,,02-2265-0151,false,37.5682697,126.9987029,11679381,https://map.naver.com/p/entry/place/11679381,,naver_shared_folder:맛집1(서울)
마포양지설렁탕,한식,"곰탕,설렁탕",서울 마포구 새창로 6,,02-716-8616,false,37.5420571,126.9504338,37365482,https://map.naver.com/p/entry/place/37365482,,naver_shared_folder:맛집1(서울)
조조칼국수 시청점,한식,"칼국수,만두",서울 중구 세종대로11길 27 조조칼국수,,0507-1444-4334,false,37.5621434,126.9742849,1092504291,https://map.naver.com/p/entry/place/1092504291,,naver_shared_folder:맛집1(서울)
갓잇 용산점,레스토랑,"멕시코,남미음식",서울 용산구 한강대로44길 6 1F GODEAT,,0507-1374-9451,false,37.5310589,126.970286,1470755972,https://map.naver.com/p/entry/place/1470755972,,naver_shared_folder:맛집1(서울)
쏭타이치앙마이 신용산본점,레스토랑,태국음식,서울 용산구 한강대로40길 39-5 1층 쏭타이치앙마이,,0507-1334-5170,false,37.530365,126.971602,1178829266,https://map.naver.com/p/entry/place/1178829266,,naver_shared_folder:맛집1(서울)
파이리퍼블릭,양식,양식,서울 마포구 양화로23길 10-10 지하 1층,,0507-1399-1967,false,37.5593125,126.9257306,1518974488,https://map.naver.com/p/entry/place/1518974488,"양갈비, 미트파이",naver_shared_folder:맛집1(서울)
우와 홍대본점,일식,일식당,서울 마포구 와우산로21길 21-16 2층,,0507-1414-9500,false,37.5517143,126.9222234,56228015,https://map.naver.com/p/entry/place/56228015,,naver_shared_folder:맛집1(서울)
돈카츠팔월,일식,돈가스,서울 용산구 한강대로 183 1층 1호 팔월,,0507-1329-1673,false,37.5351085,126.9731383,37327204,https://map.naver.com/p/entry/place/37327204,,naver_shared_folder:맛집1(서울)
단박왕돈까스,일식,돈가스,서울 용산구 백범로90길 74 이안APT 103동,,02-718-1419,false,37.5378698,126.9705948,12856508,https://map.naver.com/p/entry/place/12856508,함박스테이크,naver_shared_folder:맛집1(서울)
비양지식당,한식,한식,서울 성북구 고려대로 47,,02-926-4472,false,37.5865029,127.0247444,1024606281,https://map.naver.com/p/entry/place/1024606281,김치찌개,naver_shared_folder:맛집1(서울)
배재반점,중식,중식당,서울 중구 서소문로 103 배재빌딩,,02-755-9076,false,37.562934,126.972779,18105982,https://map.naver.com/p/entry/place/18105982,간짜장,naver_shared_folder:맛집1(서울)
연정 순대국,한식,국밥,"서울 동작구 상도로 115 1층, 2층",,0507-1425-5644,false,37.5012856,126.9329539,1112285084,https://map.naver.com/p/entry/place/1112285084,,naver_shared_folder:맛집1(서울)
시골순대,레스토랑,"순대,순댓국",서울 마포구 월드컵북로1길 50 시골순대,,0507-1330-1730,false,37.5540262,126.9188885,1000505333,https://map.naver.com/p/entry/place/1000505333,,naver_shared_folder:맛집1(서울)
순대일번지 망원본점,레스토랑,"순대,순댓국",서울 마포구 월드컵로 117,,0507-1416-9210,false,37.5586417,126.9074875,18794902,https://map.naver.com/p/entry/place/18794902,,naver_shared_folder:맛집1(서울)
화목순대국,레스토랑,"순대,순댓국",서울 영등포구 여의대방로 383 1F (경도상가 1층),,02-780-8191,false,37.5194005,126.9316586,11725872,https://map.naver.com/p/entry/place/11725872,,naver_shared_folder:맛집1(서울)
월래순교자관,중식,중식당,서울 구로구 디지털로19길 13 1층,,02-855-8488,false,37.4802976,126.8898265,1673353120,https://map.naver.com/p/entry/place/1673353120,,naver_shared_folder:맛집1(서울)
로라멘,일식,일본식라면,서울 영등포구 도림로131길 17,,02-0012-3456,false,37.5140093,126.893644,1866981775,https://map.naver.com/p/entry/place/1866981775,,naver_shared_folder:맛집1(서울)
멘쇼,일식,일본식라면,서울 광진구 군자로2길 3,,02-499-8788,false,37.5444485,127.0716882,760819243,https://map.naver.com/p/entry/place/760819243,,naver_shared_folder:맛집1(서울)
라멘다이야,일식,일본식라면,서울 광진구 자양번영로6길 67 1층 라멘다이야,,,false,37.5315848,127.0791684,1663928659,https://map.naver.com/p/entry/place/1663928659,완탕,naver_shared_folder:맛집1(서울)
566라멘,일식,일본식라면,서울 마포구 연남로3길 33 제1층,,,false,37.560566,126.9208757,1463639648,https://map.naver.com/p/entry/place/1463639648,,naver_shared_folder:맛집1(서울)
라멘 시미즈,일식,일본식라면,서울 종로구 새문안로3길 12 신문로빌딩 지하1층 37호,,02-736-2022,false,37.571364,126.9729932,1664603313,https://map.naver.com/p/entry/place/1664603313,,naver_shared_folder:맛집1(서울)
아스카 라멘,일식,일본식라면,서울 동작구 흑석로 88 102호,,0507-1346-6804,false,37.507112,126.9593658,1724218736,https://map.naver.com/p/entry/place/1724218736,,naver_shared_folder:맛집1(서울)
라멘쨩,일식,일본식라면,서울 송파구 올림픽로35길 112 장미B상가 지하1층 6호,,02-412-6745,false,37.5177941,127.1017995,1423167834,https://map.naver.com/p/entry/place/1423167834,,naver_shared_folder:맛집1(서울)
라멘 보루도 종묘 서순라길 본점,일식,일본식라면,서울 종로구 서순라길 123-8 1층,,0507-1327-5974,false,37.5756029,126.9911446,1371715546,https://map.naver.com/p/entry/place/1371715546,,naver_shared_folder:맛집1(서울)
현대순대국,레스토랑,"순대,순댓국",서울 강남구 강남대로124길 20 남경빌딩,,02-515-8708,false,37.5090456,127.0241084,19882368,https://map.naver.com/p/entry/place/19882368,,naver_shared_folder:맛집1(서울)
이남장 을지로본점,한식,"곰탕,설렁탕",서울 중구 삼일대로12길 16,,02-2267-4081,false,37.566664,126.988662,11679393,https://map.naver.com/p/entry/place/11679393,,naver_shared_folder:맛집1(서울)
제주상회,한식,한식,서울 관악구 관악로12길 108 지하1층,,02-883-7083,false,37.4772247,126.9583806,1660727152,https://map.naver.com/p/entry/place/1660727152,,naver_shared_folder:맛집1(서울)
편의방,중식,중식당,서울 서대문구 연희로 36,,02-363-5887,false,37.5617816,126.9275231,36667682,https://map.naver.com/p/entry/place/36667682,,naver_shared_folder:맛집1(서울)
대우부대찌개,레스토랑,"찌개,전골",서울 강남구 테헤란로25길 34,,02-552-1663,false,37.5027171,127.0351854,11723756,https://map.naver.com/p/entry/place/11723756,,naver_shared_folder:맛집1(서울)
개봉분식,한식,종합분식,서울 구로구 고척로21나길 65,,02-2625-9465,false,37.501945,126.842218,20856960,https://map.naver.com/p/entry/place/20856960,,naver_shared_folder:맛집1(서울)
주,중식,중식당,서울 서초구 동광로19길 16 복합빌딩,,,false,37.4932389,126.9892812,13371755,https://map.naver.com/p/entry/place/13371755,,naver_shared_folder:맛집1(서울)
명화원,중식,중식당,서울 용산구 한강대로 202,,02-792-2969,false,37.536355,126.9746187,11679883,https://map.naver.com/p/entry/place/11679883,,naver_shared_folder:맛집1(서울)
옛날 중국집,중식,중식당,서울 성북구 성북로8길 8,,02-764-0094,false,37.5908585,127.0044045,18893222,https://map.naver.com/p/entry/place/18893222,,naver_shared_folder:맛집1(서울)
서울역철도떡볶이,레스토랑,떡볶이,서울 용산구 청파로93길 18-1 1층,,02-703-7222,false,37.5543253,126.9678344,38454064,https://map.naver.com/p/entry/place/38454064,,naver_shared_folder:맛집1(서울)
마포분식,한식,떡볶이,서울 마포구 굴레방로9길 41 1층,,0507-1315-1018,false,37.5566773,126.9533829,1023755433,https://map.naver.com/p/entry/place/1023755433,,naver_shared_folder:맛집1(서울)
평양만두집,레스토랑,만두,서울 강동구 성내로 14 중앙타워,,02-488-2149,false,37.5301079,127.122114,11779749,https://map.naver.com/p/entry/place/11779749,,naver_shared_folder:맛집1(서울)
진미식당,한식,한식,서울 용산구 백범로90길 46,,02-703-6842,false,37.5366941,126.9701829,18722136,https://map.naver.com/p/entry/place/18722136,,naver_shared_folder:맛집1(서울)
손국수,레스토랑,국수,서울 성북구 성북로 89,,02-743-5640,false,37.592953,126.998993,11575359,https://map.naver.com/p/entry/place/11575359,,naver_shared_folder:맛집1(서울)
원조사철냉면,한식,냉면,서울 성동구 마조로 17 한양시장,,02-2293-0959,false,37.5593241,127.040775,20880768,https://map.naver.com/p/entry/place/20880768,,naver_shared_folder:맛집1(서울)
양양메밀막국수,레스토랑,막국수,서울 서초구 동광로15길 10 1층,,02-3482-3738,false,37.4925298,126.9882206,20927942,https://map.naver.com/p/entry/place/20927942,,naver_shared_folder:맛집1(서울)
할매국수,한식,한식,서울 종로구 돈화문로4길 5 할매국수,,02-2274-3519,false,37.5701279,126.9926508,1620200977,https://map.naver.com/p/entry/place/1620200977,,naver_shared_folder:맛집1(서울)
광민분식,한식,국수,서울 중구 마른내로 66-3 원영문화사 1층 우측,,,false,37.5641672,126.9952714,1783450925,https://map.naver.com/p/entry/place/1783450925,,naver_shared_folder:맛집1(서울)
전주식당,한식,한식,서울 금천구 독산로109길 27 1층 전주식당,,02-831-7935,false,37.4787934,126.902394,18714553,https://map.naver.com/p/entry/place/18714553,,naver_shared_folder:맛집1(서울)
필동분식,한식,종합분식,서울 중구 퇴계로27길 14,,02-2272-1838,false,37.5617725,126.9917289,19873655,https://map.naver.com/p/entry/place/19873655,,naver_shared_folder:맛집1(서울)
나그네파전,레스토랑,"전,빈대떡",서울 성북구 고려대로28길 7-4 1층,,02-929-4838,false,37.585921,127.0307803,1177915406,https://map.naver.com/p/entry/place/1177915406,,naver_shared_folder:맛집1(서울)
주부리,한식,종합분식,서울 서초구 동광로12가길 25 1층 주부리,,0507-1493-8257,false,37.4872724,126.9835054,37425693,https://map.naver.com/p/entry/place/37425693,,naver_shared_folder:맛집1(서울)
원산만두,레스토랑,만두,서울 송파구 백제고분로46길 39 1층 원산만두,,02-420-1109,false,37.5069871,127.1152426,11608928,https://map.naver.com/p/entry/place/11608928,,naver_shared_folder:맛집1(서울)
산해진미,레스토랑,만두,서울 강북구 한천로132길 34,,02-993-9084,false,37.6402458,127.029781,20821410,https://map.naver.com/p/entry/place/20821410,,naver_shared_folder:맛집1(서울)
포동이분식,한식,종합분식,서울 영등포구 버드나루로19길 7,,02-2636-4030,false,37.5283968,126.907195,20840308,https://map.naver.com/p/entry/place/20840308,,naver_shared_folder:맛집1(서울)
완차이,중식,중식당,서울 서대문구 명물길 50-7 1층 완차이,,0507-1441-0302,false,37.5587237,126.9393929,1239464884,https://map.naver.com/p/entry/place/1239464884,,naver_shared_folder:맛집1(서울)
후라토식당 여의도직영점,일식,일식당,서울 영등포구 국제금융로2길 32 여의도 파이낸스타워 3층 후라토식당,,02-780-7090,false,37.5238174,126.9241474,1483440401,https://map.naver.com/p/entry/place/1483440401,,naver_shared_folder:맛집1(서울)
코끼리만두,레스토랑,만두,서울 강서구 공항대로51길 27,,02-3662-1215,false,37.5555369,126.8577357,38014741,https://map.naver.com/p/entry/place/38014741,,naver_shared_folder:맛집1(서울)
옛날한우곱창전문 본점,레스토랑,"곱창,막창,양",서울 강서구 공항대로59길 32,,0507-1335-8026,false,37.55302,126.863842,34699341,https://map.naver.com/p/entry/place/34699341,,naver_shared_folder:맛집1(서울)
유림 닭도리탕,레스토랑,닭요리,서울 강서구 공항대로71길 5 유림,,02-3665-3930,false,37.5478715,126.8717883,19866704,https://map.naver.com/p/entry/place/19866704,,naver_shared_folder:맛집1(서울)
멸치국수,레스토랑,국수,서울 은평구 은평로 119 2층,,02-359-8988,false,37.6005257,126.9209327,31393300,https://map.naver.com/p/entry/place/31393300,,naver_shared_folder:맛집1(서울)
이종구낙지세상,레스토랑,낙지요리,서울 노원구 중계로 90 우암타운 1층,,02-930-9284,false,37.6437689,127.083411,35830601,https://map.naver.com/p/entry/place/35830601,,naver_shared_folder:맛집1(서울)
장수감자탕,레스토랑,감자탕,서울 성북구 도봉로3길 9-10 장수감자탕,,0507-1380-1009,false,37.6100176,127.0294765,20150394,https://map.naver.com/p/entry/place/20150394,,naver_shared_folder:맛집1(서울)
보배반점 하월곡점,중식,중식당,서울 성북구 종암로 184,,02-909-0184,false,37.606336,127.0314359,33595461,https://map.naver.com/p/entry/place/33595461,,naver_shared_folder:맛집1(서울)
장수한방족발보쌈,한식,"족발,보쌈",서울 성북구 정릉로 454 1층2층,,0507-1340-9011,false,37.6032907,127.0316074,20313727,https://map.naver.com/p/entry/place/20313727,,naver_shared_folder:맛집1(서울)
울타리곱창,레스토랑,"곱창,막창,양",서울 중랑구 중랑역로 20 1층,,0507-1407-7178,false,37.5959397,127.0763504,31743896,https://map.naver.com/p/entry/place/31743896,,naver_shared_folder:맛집1(서울)
이주소곱창,레스토랑,"곱창,막창,양",서울 중랑구 봉우재로33길 34,,02-978-4723,false,37.593972,127.087999,13541323,https://map.naver.com/p/entry/place/13541323,,naver_shared_folder:맛집1(서울)
찜집,한식,한식,서울 중랑구 면목로 287 1층 찜집,,02-494-0044,false,37.5783936,127.0859551,18190983,https://map.naver.com/p/entry/place/18190983,,naver_shared_folder:맛집1(서울)
신토불이 떡볶이 본점,레스토랑,떡볶이,서울 광진구 자양로43길 42,,02-457-2475,false,37.5526,127.0905,18818884,https://map.naver.com/p/entry/place/18818884,,naver_shared_folder:맛집1(서울)
군자대한곱창 군자직영본점,레스토랑,"곱창,막창,양",서울 광진구 능동로36길 10,,0507-1300-5207,false,37.5561877,127.0796849,36314747,https://map.naver.com/p/entry/place/36314747,,naver_shared_folder:맛집1(서울)
서울맛집,한식,한식,서울 성동구 성덕정15길 6-9 1층,,0507-1332-2533,false,37.5383073,127.0540167,34787360,https://map.naver.com/p/entry/place/34787360,,naver_shared_folder:맛집1(서울)
미정이네식당,레스토랑,"해물,생선요리",서울 성동구 성덕정15길 6-5,,02-463-4704,false,37.5382801,127.0539036,20765291,https://map.naver.com/p/entry/place/20765291,,naver_shared_folder:맛집1(서울)
수빈식당,한식,한식,서울 광진구 자양로5길 22,,02-444-8286,false,37.5314989,127.0846509,1917316955,https://map.naver.com/p/entry/place/1917316955,,naver_shared_folder:맛집1(서울)
민정식당,한식,한식,서울 광진구 아차산로42길 41-4 1층,,02-452-3574,false,37.5355865,127.0790261,36797971,https://map.naver.com/p/entry/place/36797971,,naver_shared_folder:맛집1(서울)
송림식당,레스토랑,기사식당,서울 광진구 자양번영로 79,,02-457-5473,false,37.5366909,127.0764127,11717380,https://map.naver.com/p/entry/place/11717380,,naver_shared_folder:맛집1(서울)
왕십리불로원곱창,레스토랑,"곱창,막창,양",서울 광진구 뚝섬로 596,,02-446-7222,false,37.5329697,127.0759964,36386526,https://map.naver.com/p/entry/place/36386526,,naver_shared_folder:맛집1(서울)
안녕식당,일식,일식당,서울 강동구 천호대로159길 53,,02-473-0543,false,37.5398626,127.1282124,36262813,https://map.naver.com/p/entry/place/36262813,,naver_shared_folder:맛집1(서울)
가락골마산아구찜,레스토랑,"아귀찜,해물찜",서울 송파구 송이로19길 3 1층,,0507-1370-6666,false,37.4974506,127.1217896,18865800,https://map.naver.com/p/entry/place/18865800,,naver_shared_folder:맛집1(서울)
일미원,한식,한식,서울 강남구 광평로46길 5-6,,02-3412-0081,false,37.4860398,127.0996622,18542038,https://map.naver.com/p/entry/place/18542038,,naver_shared_folder:맛집1(서울)
구찌라쿠,레스토랑,돈가스,서울 강남구 광평로 280 로즈데일오피스텔 지하2층,,02-2226-2010,false,37.4872953,127.1030873,18542748,https://map.naver.com/p/entry/place/18542748,,naver_shared_folder:맛집1(서울)
뽕나무쟁이 선릉본점,한식,"족발,보쌈",서울 강남구 역삼로65길 31,,02-558-9279,false,37.5032108,127.0520516,13468956,https://map.naver.com/p/entry/place/13468956,,naver_shared_folder:맛집1(서울)
소호정 본점,레스토랑,국수,서울 서초구 논현로 27 소호정본관,,02-579-7282,false,37.473254,127.0487028,11720823,https://map.naver.com/p/entry/place/11720823,,naver_shared_folder:맛집1(서울)
영동족발 본점,한식,"족발,보쌈",서울 서초구 남부순환로358길 8 1층 영동족발 본점,,02-571-3939,false,37.4845761,127.0380511,12917286,https://map.naver.com/p/entry/place/12917286,,naver_shared_folder:맛집1(서울)
청국장과보리밥 청담점,레스토랑,보리밥,서울 강남구 학동로 521,,02-544-3313,false,37.5199922,127.0557303,13548705,https://map.naver.com/p/entry/place/13548705,,naver_shared_folder:맛집1(서울)
영춘옥,한식,"곰탕,설렁탕",서울 종로구 돈화문로5가길 13,,02-765-4237,false,37.5713727,126.9915666,11712508,https://map.naver.com/p/entry/place/11712508,,naver_shared_folder:맛집1(서울)
호수집,레스토랑,닭요리,서울 중구 청파로 443,,02-392-0695,false,37.5590788,126.9686858,37581971,https://map.naver.com/p/entry/place/37581971,,naver_shared_folder:맛집1(서울)
전주전집,술집,"전통,민속주점",서울 동작구 동작대로7길 19,,02-581-1419,false,37.4796725,126.9806619,13419356,https://map.naver.com/p/entry/place/13419356,,naver_shared_folder:맛집1(서울)
구뜰집,한식,"육류,고기요리","서울 서초구 서초대로23길 14 1층, 구뜰집",,0507-1447-8592,false,37.488154,126.9925703,19861892,https://map.naver.com/p/entry/place/19861892,,naver_shared_folder:맛집1(서울)
조가네갑오징어 사당점,레스토랑,오징어요리,서울 동작구 남부순환로271길 24 1층,,0507-1413-0108,false,37.4779329,126.9801286,33471354,https://map.naver.com/p/entry/place/33471354,,naver_shared_folder:맛집1(서울)
별미볶음점,한식,한식,서울 영등포구 국제금융로6길 33 여의도백화점 지하 1층,,02-761-8188,false,37.5207952,126.9269308,32817544,https://map.naver.com/p/entry/place/32817544,,naver_shared_folder:맛집1(서울)
서울깍두기,한식,"곰탕,설렁탕",서울 영등포구 국제금융로6길 33 지하1층 31호 서울깍두기,,02-783-9628,false,37.5207631,126.9269444,13356741,https://map.naver.com/p/entry/place/13356741,,naver_shared_folder:맛집1(서울)
대한옥,한식,"곰탕,설렁탕",서울 영등포구 영등포로51길 6 1층 대한옥,,02-2633-5052,false,37.5193654,126.9109543,32800192,https://map.naver.com/p/entry/place/32800192,,naver_shared_folder:맛집1(서울)
3일한우국밥,한식,국밥,서울 영등포구 영등포로 204,,02-2678-0117,false,37.5199394,126.9040524,37379272,https://map.naver.com/p/entry/place/37379272,,naver_shared_folder:맛집1(서울)
호박집,한식,한식,서울 영등포구 영등포로 237-1 성일빌딩1층,,02-2634-9703,false,37.5196199,126.9078851,38522360,https://map.naver.com/p/entry/place/38522360,,naver_shared_folder:맛집1(서울)
도원,중식,중식당,서울 구로구 디지털로32길 30 108호,,02-856-8988,false,37.4833154,126.8965161,37155797,https://map.naver.com/p/entry/place/37155797,,naver_shared_folder:맛집1(서울)
수원식당,레스토랑,음식점,서울특별시 금천구 시흥동,,,false,37.4545409,126.901985,20830788,https://map.naver.com/p/entry/place/20830788,,naver_shared_folder:맛집1(서울)
우리소양평해장국본점,레스토랑,음식점,서울 금천구 범안로 1244,,,false,37.4663047,126.9000532,1684094154,https://map.naver.com/p/entry/place/1684094154,,naver_shared_folder:맛집1(서울)
대왕곱창,레스토랑,음식점,서울 구로구 새말로16길 29,,,false,37.5042779,126.891177,13565739,https://map.naver.com/p/entry/place/13565739,,naver_shared_folder:맛집1(서울)
숙이네조개전골 신도림점,레스토랑,음식점,서울 구로구 새말로16길 29,,,false,37.5043283,126.8911472,36090438,https://map.naver.com/p/entry/place/36090438,,naver_shared_folder:맛집1(서울)
강촌숯불닭갈비 본점,한식,음식점,서울 구로구 공원로6나길 35-2,,,false,37.5044,126.8917395,33646760,https://map.naver.com/p/entry/place/33646760,"화장실 불편, 아저씨들 많음",naver_shared_folder:맛집1(서울)
신도림참족발,한식,음식점,서울 구로구 경인로 661,,,false,37.5098655,126.8883892,35853856,https://map.naver.com/p/entry/place/35853856,,naver_shared_folder:맛집1(서울)
갓포 쿠마카세,일식,일식당,서울 양천구 목동동로 226-11 1층,,02-333-3376,false,37.5256014,126.872708,37174865,https://map.naver.com/p/entry/place/37174865,,naver_shared_folder:맛집1(서울)
현경 목동점,중식,중식당,서울 양천구 오목로 312 제일빌딩 지하1층 현경 목동점,,02-2061-1877,false,37.524706,126.871946,18399711,https://map.naver.com/p/entry/place/18399711,,naver_shared_folder:맛집1(서울)
보리밭토속음식점,레스토랑,보리밥,서울 양천구 신월로15길 15 세제뉴타운아파트,,02-2605-5882,false,37.5198109,126.8414869,12070733,https://map.naver.com/p/entry/place/12070733,,naver_shared_folder:맛집1(서울)
마반장 화곡본점,레스토랑,감자탕,서울 강서구 강서로45길 19 호은빌딩,,02-6052-7112,false,37.5477917,126.8349865,12835421,https://map.naver.com/p/entry/place/12835421,,naver_shared_folder:맛집1(서울)
초롱이고모부대찌개,레스토랑,"찌개,전골",서울 강동구 상암로11길 4 암사시장 1문,,02-442-3546,false,37.5499149,127.1288349,11719795,https://map.naver.com/p/entry/place/11719795,,naver_shared_folder:맛집1(서울)
진어참치,레스토랑,생선회,서울 마포구 연남로3길 34,,0507-1345-7412,false,37.5607414,126.9207598,1417206539,https://map.naver.com/p/entry/place/1417206539,,naver_shared_folder:맛집1(서울)
영천영화 청담점,한식,소고기구이,서울 강남구 도산대로90길 3 상민빌딩 1층,,02-3442-0381,false,37.5239502,127.0495268,13124988,https://map.naver.com/p/entry/place/13124988,,naver_shared_folder:맛집1(서울)
구스토타코,레스토랑,"멕시코,남미음식",서울 마포구 와우산로 41,,02-338-8226,false,37.5481419,126.9227917,33237660,https://map.naver.com/p/entry/place/33237660,,naver_shared_folder:맛집1(서울)
홍보각,중식,중식당,서울 강남구 봉은사로 130 노보텔 앰배서더 강남 LL층,,0507-1381-6479,false,37.5053621,127.0290189,1151061731,https://map.naver.com/p/entry/place/1151061731,,naver_shared_folder:맛집1(서울)
삼원가든,한식,한식,서울 강남구 언주로 835,,02-548-3030,false,37.5246751,127.032549,11718583,https://map.naver.com/p/entry/place/11718583,,naver_shared_folder:맛집1(서울)
스와니예,양식,양식,서울 강남구 강남대로 652 신사스퀘어 2층,,02-3477-9386,false,37.5196632,127.0190103,33979993,https://map.naver.com/p/entry/place/33979993,,naver_shared_folder:맛집1(서울)
문배동육칼 본점,한식,"칼국수,만두",서울 용산구 백범로90길 50,,02-713-6204,false,37.536633,126.9703366,11717878,https://map.naver.com/p/entry/place/11717878,,naver_shared_folder:맛집1(서울)
다츠 한남,레스토랑,아시아음식,서울 용산구 이태원로55나길 6 1층 1호 다츠,,0507-1309-7445,false,37.536664,126.9990952,247810366,https://map.naver.com/p/entry/place/247810366,,naver_shared_folder:맛집1(서울)
부타이 2막,일식,일식당,서울 중구 충무로5길 6-1 1층,,02-2273-1238,false,37.5651827,126.9923499,1146715603,https://map.naver.com/p/entry/place/1146715603,,naver_shared_folder:맛집1(서울)
고치비,양식,이탈리아음식,서울 종로구 필운대로 38 1층 고치비,,070-8869-5776,false,37.5793391,126.9689316,1302169952,https://map.naver.com/p/entry/place/1302169952,,naver_shared_folder:맛집1(서울)
호호식당 대학로,일식,일식당,서울 종로구 대학로9길 35,,0507-1317-2384,false,37.5818886,127.0000654,85806567,https://map.naver.com/p/entry/place/85806567,,naver_shared_folder:맛집1(서울)
고에몬 강남점,양식,"스파게티,파스타전문",서울 서초구 서초대로77길 7 서초빌딩 1층,,02-534-8036,false,37.4984576,127.0264551,31413936,https://map.naver.com/p/entry/place/31413936,,naver_shared_folder:맛집1(서울)
도쿄사이카보 청담,일식,일식당,서울 강남구 도산대로101길 9,,02-517-0108,false,37.5257268,127.0523565,13272850,https://map.naver.com/p/entry/place/13272850,,naver_shared_folder:맛집1(서울)
푼크툼,양식,양식,서울 종로구 필운대로 31,,0507-1493-1019,false,37.5788029,126.9688162,1464503439,https://map.naver.com/p/entry/place/1464503439,"친절, 길거리 주차, 3식탁, 외풍으로 겨울엔 좀 추움",naver_shared_folder:맛집1(서울)
다움223.1,양식,양식,서울 종로구 자하문로 223-1 지상1층,,0507-1315-8995,false,37.5941765,126.9633197,21283623,https://map.naver.com/p/entry/place/21283623,,naver_shared_folder:맛집1(서울)
누하의 숲,일식,일식당,서울 종로구 필운대로 31-1 1F,,02-733-5632,false,37.5787996,126.9687592,37770441,https://map.naver.com/p/entry/place/37770441,,naver_shared_folder:맛집1(서울)
부촌육회 본점,한식,"육류,고기요리",서울 종로구 종로 200-12 1층 부촌육회,,02-2267-1831,false,37.5704109,126.9999166,36428555,https://map.naver.com/p/entry/place/36428555,,naver_shared_folder:맛집1(서울)
이태리총각 서촌점,양식,피자,서울 종로구 자하문로9길 11,,02-730-8893,false,37.5793481,126.9705236,34786841,https://map.naver.com/p/entry/place/34786841,,naver_shared_folder:맛집1(서울)
포담 서촌본점,중식,중식당,서울 종로구 사직로 133-10 2층 포담,,0507-1407-0832,false,37.5763862,126.9734513,36908457,https://map.naver.com/p/entry/place/36908457,,naver_shared_folder:맛집1(서울)
자하손만두,레스토랑,만두,서울 종로구 백석동길 12,,02-379-2648,false,37.5932163,126.9660928,11688084,https://map.naver.com/p/entry/place/11688084,,naver_shared_folder:맛집1(서울)
에머이 종로본점,레스토랑,베트남음식,서울 종로구 종로12길 6-20,,02-733-0588,false,37.5698186,126.9846233,36959975,https://map.naver.com/p/entry/place/36959975,,naver_shared_folder:맛집1(서울)
광화문미진,한식,한식,서울 종로구 종로 19 르메이에르종로타운1 1층,,02-730-6198,false,37.5705485,126.9798986,11680222,https://map.naver.com/p/entry/place/11680222,,naver_shared_folder:맛집1(서울)
남포면옥,한식,냉면,서울 중구 을지로3길 24,,02-777-2269,false,37.5671396,126.9815998,11664585,https://map.naver.com/p/entry/place/11664585,,naver_shared_folder:맛집1(서울)
하동관 명동본점,한식,"곰탕,설렁탕",서울 중구 명동9길 12,,02-776-5656,false,37.5644272,126.9849722,11679353,https://map.naver.com/p/entry/place/11679353,,naver_shared_folder:맛집1(서울)
사토루 더 서촌,일식,일식당,서울 종로구 자하문로7길 11,,0507-1464-0096,false,37.5783639,126.9709856,1195869561,https://map.naver.com/p/entry/place/1195869561,,naver_shared_folder:맛집1(서울)
필동면옥,한식,냉면,서울 중구 서애로 26,,02-2266-2611,false,37.5603727,126.9969235,11678838,https://map.naver.com/p/entry/place/11678838,,naver_shared_folder:맛집1(서울)
공기식당,레스토랑,카레,서울 종로구 필운대로6길 20-1 1층,,0507-1440-0930,false,37.5803365,126.9695266,1119168687,https://map.naver.com/p/entry/place/1119168687,,naver_shared_folder:맛집1(서울)
두두,한식,한식,서울 종로구 동숭길 63 2층,,0507-1380-1884,false,37.5810119,127.0041381,31592246,https://map.naver.com/p/entry/place/31592246,,naver_shared_folder:맛집1(서울)
콩나물장수,한식,한식,서울 종로구 동숭길 94 1층,,02-763-7999,false,37.5824695,127.0043648,1646299730,https://map.naver.com/p/entry/place/1646299730,,naver_shared_folder:맛집1(서울)
우와 대학로점,일식,일식당,서울 종로구 동숭길 78 2층,,0507-1308-9224,false,37.5817583,127.0042725,1400319959,https://map.naver.com/p/entry/place/1400319959,오코노미야끼,naver_shared_folder:맛집1(서울)
버거파크 혜화점,양식,햄버거,서울 종로구 대학로11길 5 1층 버거파크,,0507-1475-3009,false,37.5821694,127.0013798,13158227,https://map.naver.com/p/entry/place/13158227,,naver_shared_folder:맛집1(서울)
화양연화 본점,레스토랑,태국음식,서울 종로구 계동길 73-1 지하1층,,0507-1366-2046,false,37.5805539,126.9866829,36276297,https://map.naver.com/p/entry/place/36276297,,naver_shared_folder:맛집1(서울)
이태리재,양식,이탈리아음식,서울 종로구 율곡로1길 74-9,,070-4233-6262,false,37.5787922,126.9817287,37741900,https://map.naver.com/p/entry/place/37741900,,naver_shared_folder:맛집1(서울)
mishmash,레스토랑,퓨전음식,서울 종로구 창덕궁길 47,,0507-1415-2211,false,37.5796592,126.9891453,37929317,https://map.naver.com/p/entry/place/37929317,,naver_shared_folder:맛집1(서울)
청수정,한식,한식,서울 종로구 삼청로 91,,0507-1366-8293,false,37.5835571,126.9816875,11569666,https://map.naver.com/p/entry/place/11569666,,naver_shared_folder:맛집1(서울)
만리성,중식,중식당,서울 종로구 대학로12길 61 계우빌딩,,02-747-0957,false,37.5814788,127.0039661,13583086,https://map.naver.com/p/entry/place/13583086,,naver_shared_folder:맛집1(서울)
로코스비비큐 경리단길본점,한식,"육류,고기요리",서울 용산구 회나무로 83,,02-794-3234,false,37.5409757,126.9955532,35678401,https://map.naver.com/p/entry/place/35678401,,naver_shared_folder:맛집1(서울)
평양집,레스토랑,"곱창,막창,양",서울 용산구 한강대로 186,,02-793-6866,false,37.5348745,126.9739095,19872987,https://map.naver.com/p/entry/place/19872987,,naver_shared_folder:맛집1(서울)
중림장설렁탕,한식,"곰탕,설렁탕",서울 중구 청파로 459-1,,02-392-7743,false,37.5602762,126.9677079,11721511,https://map.naver.com/p/entry/place/11721511,냄새싫어하면 불호,naver_shared_folder:맛집1(서울)
후니도니,레스토랑,돈가스,서울 종로구 종로 19 르메이에르 B113-5호,,02-722-5402,false,37.570727,126.9798081,37287956,https://map.naver.com/p/entry/place/37287956,,naver_shared_folder:맛집1(서울)
카츠8 강남점,일식,일식당,서울 서초구 서초대로74길 11 삼성전자 서초사옥 지하1층 B105호,,0507-1438-8946,false,37.4966324,127.0269076,1397024217,https://map.naver.com/p/entry/place/1397024217,모듬가스,naver_shared_folder:맛집1(서울)
가마솥족발순대국,한식,한식,서울 용산구 후암로 62,,02-776-2223,false,37.5514594,126.9771488,18124922,https://map.naver.com/p/entry/place/18124922,,naver_shared_folder:맛집1(서울)
미성옥,한식,"곰탕,설렁탕",서울 중구 명동길 25-11,,02-776-8929,false,37.5641835,126.9839596,11727415,https://map.naver.com/p/entry/place/11727415,,naver_shared_folder:맛집1(서울)
원조순희네빈대떡,레스토랑,"전,빈대떡",서울 종로구 종로32길 5,,02-2264-5057,false,37.5705941,127.0007294,11619260,https://map.naver.com/p/entry/place/11619260,,naver_shared_folder:맛집1(서울)
카츠8 용산아이파크몰점,일식,일식당,서울 용산구 한강대로23길 55 용산역 아이파크몰 4층,,02-2012-0488,false,37.5292682,126.9651485,1560573500,https://map.naver.com/p/entry/place/1560573500,,naver_shared_folder:맛집1(서울)
연길반점,중식,양꼬치,서울 중구 퇴계로 42-2,,0507-1336-9232,false,37.55775,126.9776375,18690096,https://map.naver.com/p/entry/place/18690096,어향가지,naver_shared_folder:맛집1(서울)
장군보쌈,한식,"족발,보쌈",서울 용산구 새창로45길 29,,0507-1363-4234,false,37.5348155,126.9638932,1042555005,https://map.naver.com/p/entry/place/1042555005,,naver_shared_folder:맛집1(서울)
송원 마포 돼지갈비,한식,"육류,고기요리",서울 영등포구 도림로147길 2-1,,0507-1314-2978,false,37.5166993,126.8891844,19878221,https://map.naver.com/p/entry/place/19878221,,naver_shared_folder:맛집1(서울)
소문난식당,한식,한식,서울 영등포구 도림로141가길 32-1,,02-2635-0570,false,37.516196,126.8898819,18630454,https://map.naver.com/p/entry/place/18630454,,naver_shared_folder:맛집1(서울)
허브족발,한식,"족발,보쌈",서울 영등포구 당산로 232 2층 허브족발,,02-2633-4339,false,37.5342557,126.9025793,20626597,https://map.naver.com/p/entry/place/20626597,,naver_shared_folder:맛집1(서울)
온천집,레스토랑,샤브샤브,서울 종로구 돈화문로11나길 31-8,,0507-1378-8218,false,37.5740315,126.9898057,1113085292,https://map.naver.com/p/entry/place/1113085292,,naver_shared_folder:맛집1(서울)
하니칼국수,한식,"칼국수,만두",서울 중구 퇴계로 411-15 1층 하니칼국수,,02-3298-6909,false,37.5661854,127.0172182,1964656612,https://map.naver.com/p/entry/place/1964656612,,naver_shared_folder:맛집1(서울)
난포,한식,한식,서울 성동구 서울숲4길 18-8 지층,,02-468-1540,false,37.5470252,127.0426732,1910927846,https://map.naver.com/p/entry/place/1910927846,,naver_shared_folder:맛집1(서울)
진작다이닝 성수점,일식,일식당,서울 성동구 왕십리로14나길 10 1층,,0507-1357-7415,false,37.549352,127.0457186,1034231470,https://map.naver.com/p/entry/place/1034231470,,naver_shared_folder:맛집1(서울)
다도해,레스토랑,생선회,서울 강서구 마곡동로 62 마곡사이언스타워 2층 212호,,0507-1360-0177,false,37.5605538,126.8338901,1044332048,https://map.naver.com/p/entry/place/1044332048,,naver_shared_folder:맛집1(서울)
맛찬들왕소금구이 발산역점,한식,"육류,고기요리",서울 강서구 강서로 375-7,,02-3661-5026,false,37.5591485,126.8378571,37683705,https://map.naver.com/p/entry/place/37683705,,naver_shared_folder:맛집1(서울)
랑 월,중식,중식당,서울 강서구 마곡중앙6로 66 퀸즈파크텐 206호,,02-6411-9323,false,37.5599134,126.8343193,1942610761,https://map.naver.com/p/entry/place/1942610761,"탕수육, 시그니처 메뉴 : 팔보채",naver_shared_folder:맛집1(서울)
바삭하게 선유도본점,술집,돈가스,서울 영등포구 양평로19길 10 2층,,0507-1413-6791,false,37.5365425,126.894561,771929956,https://map.naver.com/p/entry/place/771929956,,naver_shared_folder:맛집1(서울)
옥소반 마곡본점,레스토랑,샤브샤브,"서울 강서구 마곡중앙6로 45 1층 123호, 124호",,0507-1486-8086,false,37.5605583,126.8327045,1533244797,https://map.naver.com/p/entry/place/1533244797,,naver_shared_folder:맛집1(서울)
오봉집 발산 본점,한식,한식,서울 강서구 마곡동로4길 15 2층,,0507-1354-7040,false,37.5598716,126.8353531,1572890808,https://map.naver.com/p/entry/place/1572890808,,naver_shared_folder:맛집1(서울)
서울홍성원,중식,중식당,서울 강서구 공항대로 206 나인스퀘어 2층,,02-2662-8870,false,37.5587508,126.8302945,13280178,https://map.naver.com/p/entry/place/13280178,굴탕면,naver_shared_folder:맛집1(서울)
밀양손만두,레스토랑,만두,서울 종로구 계동길 41 1층,,0507-1457-8232,false,37.5791626,126.9866713,20921196,https://map.naver.com/p/entry/place/20921196,,naver_shared_folder:맛집1(서울)
이문설렁탕,한식,"곰탕,설렁탕",서울 종로구 우정국로 38-13,,02-733-6526,false,37.5727663,126.9839047,11711983,https://map.naver.com/p/entry/place/11711983,,naver_shared_folder:맛집1(서울)
두림,레스토랑,두부요리,서울 종로구 종로7길 29-17,,02-720-0714,false,37.5718416,126.9813999,17908313,https://map.naver.com/p/entry/place/17908313,,naver_shared_folder:맛집1(서울)
도원마산아구찜,레스토랑,"아귀찜,해물찜",서울 종로구 삼일대로 438 일승빌딩 1층,,02-765-4009,false,37.5737536,126.9879201,13160852,https://map.naver.com/p/entry/place/13160852,,naver_shared_folder:맛집1(서울)
이경문순대곱창,한식,한식,서울 종로구 돈화문로11나길 5,,02-765-1532,false,37.5730931,126.9908574,33903703,https://map.naver.com/p/entry/place/33903703,,naver_shared_folder:맛집1(서울)
칸다소바 경복궁점,술집,일본식라면,서울 종로구 자하문로7길 5 1층,,02-6405-1662,false,37.5782119,126.9712623,1920065620,https://map.naver.com/p/entry/place/1920065620,마제소바,naver_shared_folder:맛집1(서울)
진중 우육면관 광화문점,레스토랑,아시아음식,서울 종로구 종로7길 29-14 1층 진중 우육면관 광화문,,0507-1313-4830,false,37.5720514,126.9812496,1349236740,https://map.naver.com/p/entry/place/1349236740,,naver_shared_folder:맛집1(서울)
체부동잔치집,레스토랑,국수,서울 종로구 자하문로1길 16,,02-730-5420,false,37.5765394,126.9715263,13156385,https://map.naver.com/p/entry/place/13156385,,naver_shared_folder:맛집1(서울)
브루클린더버거조인트 광화문디타워점,양식,햄버거,서울 종로구 종로3길 17 1층,,02-2251-8080,false,37.5712926,126.9787856,1303273851,https://map.naver.com/p/entry/place/1303273851,,naver_shared_folder:맛집1(서울)
진성한우곱창 신당직영점,레스토랑,"곱창,막창,양",서울 중구 다산로 243-1,,02-2234-0777,false,37.5648493,127.0159121,32602489,https://map.naver.com/p/entry/place/32602489,,naver_shared_folder:맛집1(서울)
제일곱창 본점,레스토랑,"곱창,막창,양",서울 성동구 고산자로 281 1층 제일곱창,,,false,37.5648702,127.0361642,152310007,https://map.naver.com/p/entry/place/152310007,,naver_shared_folder:맛집1(서울)
소문난성수감자탕,레스토랑,감자탕,서울 성동구 연무장길 45,,02-465-6580,false,37.5428369,127.0543869,11721256,https://map.naver.com/p/entry/place/11721256,☆,naver_shared_folder:맛집1(서울)
농민백암순대 시청직영점,레스토랑,"순대,순댓국",서울 중구 남대문로1길 33,,02-755-5232,false,37.5626099,126.977255,37882995,https://map.naver.com/p/entry/place/37882995,,naver_shared_folder:맛집1(서울)
기절초풍왕순대,레스토랑,"순대,순댓국",서울 관악구 봉천로62길 2,,02-872-8805,false,37.4781279,126.958394,18709584,https://map.naver.com/p/entry/place/18709584,,naver_shared_folder:맛집1(서울)
신의주찹쌀순대,레스토랑,"순대,순댓국",서울 강남구 영동대로 725,,02-511-9081,false,37.5225508,127.05522,11717080,https://map.naver.com/p/entry/place/11717080,,naver_shared_folder:맛집1(서울)
일등식당,레스토랑,해장국,서울 마포구 방울내로 82,,02-333-0361,false,37.5606012,126.9043521,33085451,https://map.naver.com/p/entry/place/33085451,,naver_shared_folder:맛집1(서울)
이이요,일식,일식당,서울 광진구 능동로32길 6,,02-3437-2225,false,37.5552102,127.0789289,38738686,https://map.naver.com/p/entry/place/38738686,웨이팅 있음. 양 적음,naver_shared_folder:맛집1(서울)
청와옥 본점,레스토랑,"순대,순댓국",서울 송파구 위례성대로 48 반도빌딩 1층,,0507-1365-3488,false,37.5154323,127.117462,1111611853,https://map.naver.com/p/entry/place/1111611853,,naver_shared_folder:맛집1(서울)
원소닭/원할매소문난원조닭한마리,레스토랑,닭요리,서울 종로구 종로40가길 25 원소닭/원할매소문난원조닭한마리,,0507-1315-2078,false,37.5703072,127.005314,11706951,https://map.naver.com/p/entry/place/11706951,,naver_shared_folder:맛집1(서울)
깡통만두,레스토랑,만두,서울 종로구 북촌로2길 5-6 1층,,02-794-4243,false,37.5781764,126.9860918,11863403,https://map.naver.com/p/entry/place/11863403,,naver_shared_folder:맛집1(서울)
최강금돈까스,일식,돈가스,서울 마포구 월드컵로3길 31-30,,0507-1328-3646,false,37.5499263,126.9109319,1508260607,https://map.naver.com/p/entry/place/1508260607,,naver_shared_folder:맛집1(서울)
다운타우너 잠실,양식,햄버거,서울 송파구 백제고분로45길 3 1층 다운타우너 잠실,,070-8868-3696,false,37.5090876,127.1107563,1484348632,https://map.naver.com/p/entry/place/1484348632,,naver_shared_folder:맛집1(서울)
다운타우너 한남,양식,햄버거,서울 용산구 대사관로5길 12 1층 다운타우너 한남점,,070-8806-3696,false,37.5348368,127.0008698,37822450,https://map.naver.com/p/entry/place/37822450,,naver_shared_folder:맛집1(서울)
다운타우너 안국,양식,햄버거,서울 종로구 북촌로 6-4 1층,,0507-1491-3696,false,37.577445,126.9862902,1778375429,https://map.naver.com/p/entry/place/1778375429,,naver_shared_folder:맛집1(서울)
르프리크 성수,양식,햄버거,서울 성동구 연무장5길 9-16 블루스톤타워 B103,,0507-1376-0199,false,37.5444391,127.0526591,1227114216,https://map.naver.com/p/entry/place/1227114216,치킨버거,naver_shared_folder:맛집1(서울)
제스티살룬 성수,양식,햄버거,서울 성동구 서울숲4길 13 1층 제스티살룬,,0507-1371-2622,false,37.5475917,127.0423894,1172915589,https://map.naver.com/p/entry/place/1172915589,,naver_shared_folder:맛집1(서울)
춘향미엔 왕십리점,중식,중식당,서울 성동구 왕십리로21길 26 1층,,02-2281-9031,false,37.5605097,127.0320356,1643229713,https://map.naver.com/p/entry/place/1643229713,"메인메뉴 하나(온면 추천) 2인당 차돌1, 만두1",naver_shared_folder:맛집1(서울)
부탄츄 신촌점,일식,일본식라면,서울 서대문구 연세로5길 26-9,,02-3144-6604,false,37.5567268,126.935103,33525384,https://map.naver.com/p/entry/place/33525384,,naver_shared_folder:맛집1(서울)
멘야하나비 합정점,일식,일본식라면,서울 마포구 잔다리로7안길 14 1층,,0507-1449-8059,false,37.5524813,126.9168456,1393927574,https://map.naver.com/p/entry/place/1393927574,,naver_shared_folder:맛집1(서울)
우동가조쿠,술집,"우동,소바",서울 성동구 왕십리로 215-1,,0507-1406-2177,false,37.556772,127.0429406,32417257,https://map.naver.com/p/entry/place/32417257,붓카케,naver_shared_folder:맛집1(서울)
정육면체 신촌점,레스토랑,아시아음식,서울 서대문구 연세로5다길 22-8 1층 정육면체,,0507-1331-3819,false,37.556887,126.9346214,1229208931,https://map.naver.com/p/entry/place/1229208931,,naver_shared_folder:맛집1(서울)
멘텐,일식,일본식라면,서울 중구 삼일대로 305 동북빌딩1층,,,false,37.5619803,126.9886351,1161069141,https://map.naver.com/p/entry/place/1161069141,,naver_shared_folder:맛집1(서울)
멘야세븐,일식,일본식라면,서울 강동구 양재대로112길 45 1층,,0507-1357-7807,false,37.5364067,127.1423511,1637966123,https://map.naver.com/p/entry/place/1637966123,,naver_shared_folder:맛집1(서울)
놀부만두,레스토랑,만두,"서울 동대문구 망우로16길 15 1F, 놀부만두",,0507-1476-7552,false,37.5893787,127.0614705,20691128,https://map.naver.com/p/entry/place/20691128,,naver_shared_folder:맛집1(서울)
히타토제면소,술집,"우동,소바",서울 종로구 옥인길 19 1층 102호,,,false,37.5806306,126.96741,38010668,https://map.naver.com/p/entry/place/38010668,,naver_shared_folder:맛집1(서울)
함반,한식,한식,서울 마포구 월드컵로1길 54 1층 함반,,0507-1336-0394,false,37.5490227,126.9100845,1431631412,https://map.naver.com/p/entry/place/1431631412,,naver_shared_folder:맛집1(서울)
타비함박,일식,일식당,서울 서대문구 연희맛로 17-14 B101호,,0507-1400-3677,false,37.5671941,126.9290427,38486473,https://map.naver.com/p/entry/place/38486473,,naver_shared_folder:맛집1(서울)
경아식당 본점,한식,한식,서울 강서구 마곡중앙6로 85 1층 103호,,02-3662-7040,false,37.5601954,126.8368109,1128721873,https://map.naver.com/p/entry/place/1128721873,,naver_shared_folder:맛집1(서울)
늘푸른목장 잠실본점,한식,소고기구이,서울 송파구 백제고분로9길 34 1F,,0507-1429-4520,false,37.5096583,127.0826375,11679241,https://map.naver.com/p/entry/place/11679241,,naver_shared_folder:맛집1(서울)
신천생태찌개,레스토랑,"매운탕,해물탕",서울 송파구 올림픽로8길 32 대양빌딩 1층,,02-418-2642,false,37.508792,127.080511,1683030629,https://map.naver.com/p/entry/place/1683030629,,naver_shared_folder:맛집1(서울)
미로식당,한식,한식,서울 마포구 와우산로30길 80 1층,,0507-1412-3777,false,37.5520504,126.9278854,37915697,https://map.naver.com/p/entry/place/37915697,,naver_shared_folder:맛집1(서울)
왕소야 홍대점,중식,중식당,서울 마포구 와우산로25길 13 2층,,0507-1369-8093,false,37.5539894,126.9258355,1189970521,https://map.naver.com/p/entry/place/1189970521,,naver_shared_folder:맛집1(서울)
교동전선생 종로구청점,술집,"전통,민속주점","서울 종로구 삼봉로 62 1층, 2층 교동전선생",,0507-1314-9909,false,37.5722543,126.9805352,299672608,https://map.naver.com/p/entry/place/299672608,,naver_shared_folder:맛집1(서울)
히가시,일식,일식당,서울 용산구 독서당로 27 102동 102호,,,false,37.5309607,127.0073899,1142104212,https://map.naver.com/p/entry/place/1142104212,,naver_shared_folder:맛집1(서울)
일일향 삼성11호점,중식,중식당,서울 강남구 테헤란로83길 20,,02-554-9882,false,37.5087514,127.05753,1419894723,https://map.naver.com/p/entry/place/1419894723,,naver_shared_folder:맛집1(서울)
바스버거 역삼점,술집,햄버거,서울 강남구 테헤란로26길 10 성보빌딩 지하1층,,0507-1439-6654,false,37.4996833,127.0357711,38403519,https://map.naver.com/p/entry/place/38403519,,naver_shared_folder:맛집1(서울)
데일리픽스 강남본점,양식,햄버거,서울 강남구 논현로85길 70 1층 102호,,0507-1346-2468,false,37.4976844,127.03257,1912493531,https://map.naver.com/p/entry/place/1912493531,,naver_shared_folder:맛집1(서울)
빠넬로,양식,이탈리아음식,서울 마포구 어울마당로5길 29,,,false,37.5494133,126.9190158,33707338,https://map.naver.com/p/entry/place/33707338,파스타,naver_shared_folder:맛집1(서울)
돈까스광명,일식,돈가스,서울 마포구 포은로 25 1층,,,false,37.5500754,126.9082714,1640683116,https://map.naver.com/p/entry/place/1640683116,,naver_shared_folder:맛집1(서울)
카와카츠 합정점,일식,돈가스,서울 마포구 양화로 78-7 1층 카와카츠,,0507-1365-6317,false,37.5514679,126.9173802,1152661518,https://map.naver.com/p/entry/place/1152661518,,naver_shared_folder:맛집1(서울)
노무라,술집,와인,서울 성동구 마장로26길 13 101호,,0507-1315-1351,false,37.5656805,127.0358828,1254918287,https://map.naver.com/p/entry/place/1254918287,,naver_shared_folder:맛집1(서울)
카츠오도 신대방본점,일식,일식당,서울 관악구 조원로16가길 51,,0507-1326-4286,false,37.4824836,126.9134221,1990940670,https://map.naver.com/p/entry/place/1990940670,,naver_shared_folder:맛집1(서울)
초이라멘,일식,일본식라면,서울 종로구 율곡로 290-2,,0507-1406-7666,false,37.5715041,127.0085588,1595913531,https://map.naver.com/p/entry/place/1595913531,,naver_shared_folder:맛집1(서울)
프라자손칼국수,한식,"칼국수,만두",서울 송파구 동남로18길 40 프라자아파트,,02-430-4300,false,37.4930369,127.1340099,20637033,https://map.naver.com/p/entry/place/20637033,,naver_shared_folder:맛집1(서울)
원 디그리 노스 강남점,레스토랑,아시아음식,서울 강남구 학동로43길 8 원 디그리 노스 강남점,,070-4333-8884,false,37.5167856,127.0374458,1287899904,https://map.naver.com/p/entry/place/1287899904,,naver_shared_folder:맛집1(서울)
낙성곱창,레스토랑,"곱창,막창,양",서울 동작구 동작대로19길 60,,02-3474-5777,false,37.4836321,126.9783597,19877338,https://map.naver.com/p/entry/place/19877338,,naver_shared_folder:맛집1(서울)
전주익산,레스토랑,"순대,순댓국","서울 관악구 신림로59길 14 원조민속순대타운 원빌딩3층 302호, 304호 전주익산",,0507-1439-0848,false,37.4832713,126.9288008,33093067,https://map.naver.com/p/entry/place/33093067,,naver_shared_folder:맛집1(서울)
부농정육식당,한식,"육류,고기요리",서울 송파구 백제고분로28길 29 1층 부농정육식당,,0507-1347-3316,false,37.5004314,127.0913648,37532299,https://map.naver.com/p/entry/place/37532299,,naver_shared_folder:맛집1(서울)
본앤브레드 신관,레스토랑,정육식당,서울 성동구 마장로42길 1,,02-2294-5005,false,37.5667972,127.044513,1151270351,https://map.naver.com/p/entry/place/1151270351,,naver_shared_folder:맛집1(서울)
가야밀냉면해물칼국수 본점,한식,냉면,서울 은평구 대서문길 36 북한산성상가 A동 106호,,0507-1343-5546,false,37.6558159,126.9476228,33078021,https://map.naver.com/p/entry/place/33078021,,naver_shared_folder:맛집1(서울)
월화식당 마포본점,한식,"육류,고기요리","서울 마포구 도화길 29 1, 2층",,0507-1410-7596,false,37.5408671,126.9491679,1905133643,https://map.naver.com/p/entry/place/1905133643,,naver_shared_folder:맛집1(서울)
육도,한식,"육류,고기요리",서울 마포구 토정로 261 1층,,0507-1310-3465,false,37.5430508,126.9394028,1393712079,https://map.naver.com/p/entry/place/1393712079,,naver_shared_folder:맛집1(서울)
엘픽,양식,"스테이크,립",서울 강남구 도산대로78길 25 1층,,070-4264-0033,false,37.5223817,127.0466446,1317027054,https://map.naver.com/p/entry/place/1317027054,,naver_shared_folder:맛집1(서울)
부첼리하우스,양식,양식,서울 용산구 독서당로 122-1,,02-792-5676,false,37.5368456,127.0128985,783125368,https://map.naver.com/p/entry/place/783125368,,naver_shared_folder:맛집1(서울)
울프강 스테이크하우스,양식,"스테이크,립",서울 강남구 선릉로152길 21 영인빌딩 1층,,0507-1486-8700,false,37.5244206,127.0414091,36449091,https://map.naver.com/p/entry/place/36449091,,naver_shared_folder:맛집1(서울)
시오,양식,양식,서울 강남구 도산대로54길 33 시오,,0507-1335-6239,false,37.5205383,127.0391841,1648407120,https://map.naver.com/p/entry/place/1648407120,호불호 나뉨,naver_shared_folder:맛집1(서울)
익스퀴진,양식,양식,서울 강남구 삼성로140길 6 라파빌딩,,02-542-6921,false,37.5210769,127.0496916,38781115,https://map.naver.com/p/entry/place/38781115,가성비로는 압도적 1위,naver_shared_folder:맛집1(서울)
세종한우 학동역점,레스토랑,정육식당,서울 강남구 학동로 219 국제빌딩 지층,,02-516-3330,false,37.5149648,127.0330116,34463139,https://map.naver.com/p/entry/place/34463139,,naver_shared_folder:맛집1(서울)
한남동 감자탕 본점,한식,한식,서울 용산구 대사관로 73 1층,,02-790-8309,false,37.5335499,127.0061771,31427681,https://map.naver.com/p/entry/place/31427681,뼈찜,naver_shared_folder:맛집1(서울)
금고깃집 본점,한식,"육류,고기요리","서울 강서구 마곡동로 61 109호, 203-205호",,02-3662-8295,false,37.5604919,126.8332173,1988367250,https://map.naver.com/p/entry/place/1988367250,고기 구워줌,naver_shared_folder:맛집1(서울)
등촌 최월선칼국수,한식,"칼국수,만두",서울 강서구 화곡로64길 68,,02-3661-2744,false,37.5560116,126.8566894,11687067,https://map.naver.com/p/entry/place/11687067,,naver_shared_folder:맛집1(서울)
스시오마주,일식,"초밥,롤",서울 강남구 강남대로152길 67 지하1층 102호,,0507-1324-1836,false,37.5190083,127.0245403,1730079135,https://map.naver.com/p/entry/place/1730079135,,naver_shared_folder:맛집1(서울)
왓쇼이켄,일식,일본식라면,서울 강남구 테헤란로4길 46 쌍용플래티넘밸류 B1 120호,,02-508-5127,false,37.4951166,127.0303103,38643764,https://map.naver.com/p/entry/place/38643764,쇼유라멘,naver_shared_folder:맛집1(서울)
오제제 강남점,일식,일식당,서울 강남구 강남대로 358,,070-8691-4659,false,37.4950692,127.0298087,1274621934,https://map.naver.com/p/entry/place/1274621934,,naver_shared_folder:맛집1(서울)
진미식당,레스토랑,게요리,서울 마포구 마포대로 186-6,,02-3211-4468,false,37.5506119,126.9557656,19862126,https://map.naver.com/p/entry/place/19862126,,naver_shared_folder:맛집1(서울)
무탄 코엑스점,중식,중식당,서울 강남구 영동대로 513 스타필드 코엑스 B1층 H121호,,0507-1397-0364,false,37.5113961,127.0585504,1583057180,https://map.naver.com/p/entry/place/1583057180,,naver_shared_folder:맛집1(서울)
동래정 영등포구청 본점,한식,"육류,고기요리",서울 영등포구 당산로30길 5 1층 동래정 영등포구청본점,,0507-1489-9299,false,37.5256837,126.8972736,1405131251,https://map.naver.com/p/entry/place/1405131251,,naver_shared_folder:맛집1(서울)
원조소금구이치맛살집,한식,"육류,고기요리",서울 강동구 명일로 221,,02-483-0092,false,37.5384582,127.1462,33875522,https://map.naver.com/p/entry/place/33875522,항정살 먹고 김치국밥 꼭 먹을것,naver_shared_folder:맛집1(서울)
다람 강동본점,한식,"육류,고기요리",서울 강동구 양재대로85길 29 1층,,0507-1339-6047,false,37.524603,127.1329286,13158292,https://map.naver.com/p/entry/place/13158292,,naver_shared_folder:맛집1(서울)
더 이탈리안 클럽,양식,양식,서울 송파구 잠실로 209 KT송파타워 2층 더 이탈리안 클럽,,0507-1330-3238,false,37.513871,127.1063644,1072373722,https://map.naver.com/p/entry/place/1072373722,,naver_shared_folder:맛집1(서울)
부일갈매기,한식,돼지고기구이,서울 송파구 삼전로13길 4,,02-412-1462,false,37.5072962,127.089846,18570242,https://map.naver.com/p/entry/place/18570242,,naver_shared_folder:맛집1(서울)
명동교자 본점,한식,"칼국수,만두",서울 중구 명동10길 29,,0507-1366-5348,false,37.5625491,126.9856025,11592650,https://map.naver.com/p/entry/place/11592650,,naver_shared_folder:맛집1(서울)
카츠바이콘반,술집,일식당,서울 강남구 선릉로153길 36 1층,,0507-1332-3903,false,37.5247759,127.036456,1573951163,https://map.naver.com/p/entry/place/1573951163,,naver_shared_folder:맛집1(서울)
뒤푸리,레스토랑,"해물,생선요리",서울 영등포구 은행로 29 정우빌딩,,02-780-4513,false,37.529057,126.9218327,19882399,https://map.naver.com/p/entry/place/19882399,,naver_shared_folder:맛집1(서울)
통통돼지뽈살 홍대본점,한식,돼지고기구이,"서울 마포구 어울마당로 126-1 1층, 지하층",,0507-1387-0570,false,37.5556332,126.9241625,19873518,https://map.naver.com/p/entry/place/19873518,,naver_shared_folder:맛집1(서울)
장군집 양평동본점,한식,"육류,고기요리",서울 영등포구 선유서로 97 1층 1호,,02-3667-1392,false,37.5244599,126.885768,32112973,https://map.naver.com/p/entry/place/32112973,,naver_shared_folder:맛집1(서울)
오가와,일식,일식당,서울 종로구 새문안로5길 19,,02-735-1001,false,37.5721808,126.97448,13574838,https://map.naver.com/p/entry/place/13574838,,naver_shared_folder:맛집1(서울)
스시키,일식,"초밥,롤",서울 강남구 선릉로107길 3-4 운경빌딩1층,,0507-1441-2008,false,37.5088896,127.0439238,38576093,https://map.naver.com/p/entry/place/38576093,,naver_shared_folder:맛집1(서울)
봉산집 본점,한식,소고기구이,서울 용산구 한강대로62나길 24,,02-793-5022,false,37.5344836,126.9750034,11724751,https://map.naver.com/p/entry/place/11724751,,naver_shared_folder:맛집1(서울)
일미락 목동본점,한식,돼지고기구이,서울 양천구 목동동로 226-16,,0507-1442-9306,false,37.5254137,126.8729803,34043878,https://map.naver.com/p/entry/place/34043878,,naver_shared_folder:맛집1(서울)
목멱산방,한식,한식,서울 중구 퇴계로20길 71 1층 목멱산방,,02-318-4790,false,37.5581107,126.9869447,13573290,https://map.naver.com/p/entry/place/13573290,,naver_shared_folder:맛집1(서울)
광화문국밥,한식,한식,서울 중구 세종대로21길 53,,02-738-5688,false,37.5689749,126.9754124,781105443,https://map.naver.com/p/entry/place/781105443,,naver_shared_folder:맛집1(서울)
청송옥,한식,국밥,서울 중구 서소문로11길 14,,02-754-1547,false,37.5634668,126.9730425,11709589,https://map.naver.com/p/entry/place/11709589,,naver_shared_folder:맛집1(서울)
광화문뚝감,레스토랑,감자탕,서울 종로구 새문안로3길 21,,02-722-5894,false,37.5720689,126.9725919,17902444,https://map.naver.com/p/entry/place/17902444,,naver_shared_folder:맛집1(서울)
효자동목고기,한식,돼지고기구이,서울 종로구 종로16길 24 관철동26번지,,02-737-7989,false,37.5689692,126.9885983,37161773,https://map.naver.com/p/entry/place/37161773,,naver_shared_folder:맛집1(서울)
고릴라,한식,돼지고기구이,서울 서대문구 충정로 22-2,,02-312-3541,false,37.5609073,126.9636905,13573327,https://map.naver.com/p/entry/place/13573327,,naver_shared_folder:맛집1(서울)
뽐모도로 광화문지점,양식,이탈리아음식,서울 종로구 새문안로9길 19-1 일선빌딩 1층,,02-722-4675,false,37.5711472,126.9756648,11680230,https://map.naver.com/p/entry/place/11680230,,naver_shared_folder:맛집1(서울)
동베이 광화문점,중식,양꼬치,서울 종로구 새문안로5길 8-1 2층 동베이 광화문점,,02-723-8696,false,37.5710179,126.9750402,1962205483,https://map.naver.com/p/entry/place/1962205483,,naver_shared_folder:맛집1(서울)
마곡오리,레스토랑,오리요리,서울 강서구 양천로30길 11,,02-3662-5292,false,37.572673,126.822808,31266496,https://map.naver.com/p/entry/place/31266496,,naver_shared_folder:맛집1(서울)
한성식당,한식,한식,서울 중구 서소문로11길 8 1층 한성,,02-752-2056,false,37.5633103,126.9730392,11735008,https://map.naver.com/p/entry/place/11735008,,naver_shared_folder:맛집1(서울)
성너머집,레스토랑,"백숙,삼계탕",서울 은평구 불광로18길 13-1,,02-764-8571,false,37.6225071,126.9328375,12768215,https://map.naver.com/p/entry/place/12768215,,naver_shared_folder:맛집1(서울)
성북동누룽지백숙,한식,한식,서울 성북구 성북로31길 9,,02-764-0707,false,37.5945857,126.9905008,11727585,https://map.naver.com/p/entry/place/11727585,,naver_shared_folder:맛집1(서울)
낙동강,한식,"육류,고기요리",서울 중구 을지로1길 34 낙동강,,0507-1400-1797,false,37.567605,126.9798345,18001853,https://map.naver.com/p/entry/place/18001853,,naver_shared_folder:맛집1(서울)
대박곱창구이,한식,"곱창,막창,양",서울 영등포구 당산로30길 6-1 1층 대박곱창,,0507-1348-0209,false,37.525526,126.897339,13072460,https://map.naver.com/p/entry/place/13072460,,naver_shared_folder:맛집1(서울)
화목순대국전문 광화문1호점,레스토랑,"순대,순댓국",서울 종로구 새문안로5길 11,,02-723-8313,false,37.5712514,126.9747764,20867980,https://map.naver.com/p/entry/place/20867980,,naver_shared_folder:맛집1(서울)
한담,한식,돼지고기구이,서울 마포구 양화로7길 49 배아띠빌딩 1층 한담,,0507-1415-3446,false,37.5528095,126.9139021,37933357,https://map.naver.com/p/entry/place/37933357,,naver_shared_folder:맛집1(서울)
옥동식,한식,국밥,서울 마포구 양화로7길 44-10,,,false,37.5526833,126.9144811,859857359,https://map.naver.com/p/entry/place/859857359,,naver_shared_folder:맛집1(서울)
오죽이네,레스토랑,닭요리,서울 종로구 돈화문로11가길 25,,02-741-8874,false,37.5738124,126.9908395,19418573,https://map.naver.com/p/entry/place/19418573,,naver_shared_folder:맛집1(서울)
올인,레스토랑,돈가스,서울 종로구 대학로1길 34-16,,02-745-6663,false,37.5724749,127.0001638,19414190,https://map.naver.com/p/entry/place/19414190,,naver_shared_folder:맛집1(서울)
무명식당,레스토랑,한정식,서울 중구 세종대로 55 지하2층,,,false,37.5616649,126.9749759,1203959170,https://map.naver.com/p/entry/place/1203959170,,naver_shared_folder:맛집1(서울)
와룡동닭매운탕,레스토랑,닭요리,서울 종로구 율곡로10길 30 동주빌딩 1층,,02-743-1134,false,37.5761086,126.9909994,35593459,https://map.naver.com/p/entry/place/35593459,,naver_shared_folder:맛집1(서울)
한일식당,일식,생선구이,서울 종로구 수표로20길 16-17,,02-2279-7343,false,37.5698898,126.9911286,11862556,https://map.naver.com/p/entry/place/11862556,,naver_shared_folder:맛집1(서울)
교대이층집 교대본점,한식,"육류,고기요리",서울 서초구 서초대로50길 24 청화빌딩 2층,,0507-1429-6692,false,37.4921113,127.0129575,35624097,https://map.naver.com/p/entry/place/35624097,,naver_shared_folder:맛집1(서울)
남부 서초본점,한식,"육류,고기요리",서울 서초구 효령로52길 5 1층,,0507-1339-7567,false,37.4839296,127.0128802,1979024190,https://map.naver.com/p/entry/place/1979024190,,naver_shared_folder:맛집1(서울)
마루심 반포점,레스토랑,"장어,먹장어요리",서울 서초구 고무래로10길 10 청구빌딩 1층,,02-592-8998,false,37.5019278,127.0105785,20206990,https://map.naver.com/p/entry/place/20206990,,naver_shared_folder:맛집1(서울)
조연탄 목동본점,한식,한식,서울 강서구 곰달래로60길 33 1층 조연탄 목동본점,,0507-1494-2013,false,37.5309023,126.8632392,20848484,https://map.naver.com/p/entry/place/20848484,,naver_shared_folder:맛집1(서울)
한옥집김치찜 서대문본점,한식,한식,서울 서대문구 통일로9길 12 1층 한옥집김치찜 서대문본점,,0507-1391-8653,false,37.5672532,126.964422,11593472,https://map.naver.com/p/entry/place/11593472,,naver_shared_folder:맛집1(서울)
농민백암순대 역삼직영점,레스토랑,"순대,순댓국",서울 강남구 역삼로3길 20-4 1층,,02-501-2772,false,37.4949366,127.0314467,20694317,https://map.naver.com/p/entry/place/20694317,,naver_shared_folder:맛집1(서울)
초가삼계탕,레스토랑,"백숙,삼계탕",서울 금천구 시흥대로38길 43 훼밀리연립,,02-893-9939,false,37.4454198,126.9042446,18543190,https://map.naver.com/p/entry/place/18543190,,naver_shared_folder:맛집1(서울)
오센,술집,이자카야,서울 동작구 동작대로27나길 8 1층,,02-3478-1559,false,37.4871971,126.9807561,20103976,https://map.naver.com/p/entry/place/20103976,,naver_shared_folder:맛집1(서울)
도동집,한식,한식,서울 용산구 후암로48길 1,,02-772-9463,false,37.5528552,126.9767946,37641712,https://map.naver.com/p/entry/place/37641712,,naver_shared_folder:맛집1(서울)
땅코참숯구이 본점,한식,돼지고기구이,서울 성동구 행당로17길 26 1층 땅코참숯구이,,0507-1311-6908,false,37.5606964,127.0330078,1328684927,https://map.naver.com/p/entry/place/1328684927,,naver_shared_folder:맛집1(서울)
탕화쿵푸마라탕 만리동점,중식,마라탕,서울 중구 만리동2가 179-1,,02-363-3737,false,37.5537698,126.9647607,1785506378,https://map.naver.com/p/entry/place/1785506378,,naver_shared_folder:맛집1(서울)
연남제비,한식,"육류,고기요리",서울 마포구 성미산로 186 1층 연남제비,,02-6080-9808,false,37.5630981,126.9260248,1090105095,https://map.naver.com/p/entry/place/1090105095,,naver_shared_folder:맛집1(서울)
능동미나리 신용산점,한식,한식,"서울 용산구 한강대로40길 28 1, 2층",,0507-1388-1035,false,37.5300731,126.9708333,1036043935,https://map.naver.com/p/entry/place/1036043935,,naver_shared_folder:맛집1(서울)
라멘트럭 상수본점,일식,일본식라면,서울 마포구 독막로14길 31 1층 라멘트럭,,02-336-8456,false,37.5474948,126.9225997,36097869,https://map.naver.com/p/entry/place/36097869,,naver_shared_folder:맛집1(서울)
존라멘,일식,일본식라면,서울 중구 퇴계로49길 33 1층,,02-2272-0200,false,37.5630282,126.9990638,1037217659,https://map.naver.com/p/entry/place/1037217659,,naver_shared_folder:맛집1(서울)
교레츠라멘,일식,일본식라면,서울 구로구 경인로 643 205동 1층 115호 (신도림 2차동아아파트 상가),,070-7585-2310,false,37.5083518,126.8864744,1173342402,https://map.naver.com/p/entry/place/1173342402,,naver_shared_folder:맛집1(서울)
옥토끼제면소,일식,일본식라면,서울 은평구 불광천길 536 애필리움아파트,,02-6104-6353,false,37.597927,126.9163954,1647364324,https://map.naver.com/p/entry/place/1647364324,,naver_shared_folder:맛집1(서울)
마시타야,일식,일본식라면,서울 마포구 와우산로29라길 26,,0507-1368-5715,false,37.5547962,126.9266263,543015182,https://map.naver.com/p/entry/place/543015182,웨이팅 극악,naver_shared_folder:맛집1(서울)
오레노라멘 인사점,일식,일본식라면,서울 종로구 율곡로 49-4 1층,,0507-1341-3539,false,37.5765297,126.9845721,1133826226,https://map.naver.com/p/entry/place/1133826226,,naver_shared_folder:맛집1(서울)
이츠모라멘,일식,일본식라면,서울 마포구 와우산로23길 18-7 2층 202호,,0507-1309-1997,false,37.5539865,126.9246495,1542231124,https://map.naver.com/p/entry/place/1542231124,,naver_shared_folder:맛집1(서울)
하카타분코,일식,일본식라면,서울 마포구 독막로19길 43,,02-338-5536,false,37.5489357,126.9237639,11678649,https://map.naver.com/p/entry/place/11678649,,naver_shared_folder:맛집1(서울)
우마이도 건대점,일식,일본식라면,서울 광진구 능동로 135-2 우마이도 건대점,,0507-1406-8788,false,37.5429797,127.071747,12764501,https://map.naver.com/p/entry/place/12764501,,naver_shared_folder:맛집1(서울)
지로우 라멘,일식,일식당,서울 마포구 와우산로29가길 79 1층,,02-323-3225,false,37.5537179,126.9251809,31135248,https://map.naver.com/p/entry/place/31135248,돈코츠,naver_shared_folder:맛집1(서울)
반라이,일식,일본식라면,서울 마포구 독막로15길 3-12 102호,,070-1111-0000,false,37.5484285,126.921529,1456435836,https://map.naver.com/p/entry/place/1456435836,츠케멘,naver_shared_folder:맛집1(서울)
멘타미,일식,일본식라면,서울 용산구 한강대로76길 9 1층,,02-794-4307,false,37.5416418,126.9736389,1809018107,https://map.naver.com/p/entry/place/1809018107,새우츠케멘,naver_shared_folder:맛집1(서울)
쿄 라멘,일식,일본식라면,"서울 마포구 동교로46길 25 지층 쿄, 라멘",,0507-1327-8043,false,37.5622875,126.9261473,1636571197,https://map.naver.com/p/entry/place/1636571197,ㅠ웨이팅 긺,naver_shared_folder:맛집1(서울)
멘카오리,일식,일본식라면,서울 서초구 사평대로57길 39-2,,02-6014-1786,false,37.5060403,127.0226871,1138570926,https://map.naver.com/p/entry/place/1138570926,,naver_shared_folder:맛집1(서울)
오레노라멘송파,일식,일본식라면,서울 송파구 백제고분로45길 17-3 일층,,02-418-3539,false,37.5095295,127.1094332,1713900848,https://map.naver.com/p/entry/place/1713900848,,naver_shared_folder:맛집1(서울)
멘야하나비 송파본점,일식,일본식라면,서울 송파구 백제고분로45길 38 1층 멘야하나비 송파본점,,0507-1408-1108,false,37.5109657,127.1077484,37373204,https://map.naver.com/p/entry/place/37373204,,naver_shared_folder:맛집1(서울)
멘지 망원점,일식,일본식라면,서울 마포구 월드컵로11길 8 103호 멘지,,0507-1493-1984,false,37.5548972,126.9103679,1266391111,https://map.naver.com/p/entry/place/1266391111,"토리파이탄  : 자가제면하는 멘지, 여기도 좀 칩니다.",naver_shared_folder:맛집1(서울)
사루카메,일식,일본식라면,서울 마포구 연남로 15 1층,,,false,37.5610641,126.9227332,1763607050,https://map.naver.com/p/entry/place/1763607050,꽃게라멘 : 단맛이 튐,naver_shared_folder:맛집1(서울)
라무라 합정,일식,일본식라면,서울 마포구 포은로 21 1층 라무라 합정,,0507-1332-8490,false,37.5498062,126.9086185,1676250764,https://map.naver.com/p/entry/place/1676250764,"블랙쇼유라멘 : 라멘, 닭육수 베이스이나, 비쥬얼에 비해 맛은 많이 따라오지 못하는 느낌",naver_shared_folder:맛집1(서울)
이리에라멘,일식,일본식라면,서울 마포구 성지1길 18 1층,,0507-1411-2593,false,37.5481204,126.9144052,1325232969,https://map.naver.com/p/entry/place/1325232969,도미시오라멘  : 부드럽고 호불호 안갈리는게 특징. 우엉튀김이 킥,naver_shared_folder:맛집1(서울)
덴키 도곡본점,일식,일식당,서울 강남구 논현로30길 43 1층,,070-7756-2999,false,37.4848824,127.0451597,1297421035,https://map.naver.com/p/entry/place/1297421035,이에케라멘  : 이에케라멘을 잘 다루는 업장으로 극악한 염도가 특징.,naver_shared_folder:맛집1(서울)
무겐스위치,일식,일본식라면,서울 마포구 동교로 242-13,,02-336-4925,false,37.5613796,126.9251782,1490548135,https://map.naver.com/p/entry/place/1490548135,"이에케라멘  : 하쿠텐보단 낫지는 않지만, 충분히 경쟁력 있습니다.",naver_shared_folder:맛집1(서울)
소바하우스멘야준 연남점,술집,일식당,서울 마포구 월드컵북로6길 84 1층,,0507-1396-0727,false,37.559984,126.9226164,1691071399,https://map.naver.com/p/entry/place/1691071399,"쇼유라멘  :  돼지, 닭, 교카이 3종을 블렌딩한 육수입니다. 깔끔한 맛으로",naver_shared_folder:맛집1(서울)
윤멘,일식,일본식라면,서울 마포구 포은로 27,,,false,37.5502412,126.9080959,1704339246,https://map.naver.com/p/entry/place/1704339246,"모츠츠케멘  : 모츠는 곱창입니다. 츠케멘은 찍어먹는 라멘이란 뜻인데, 곱창의 그 특유의",naver_shared_folder:맛집1(서울)
하쿠텐라멘,일식,일본식라면,서울 마포구 동교로 266-12 반지하,,0507-1325-3758,false,37.5628312,126.9258551,1031219213,https://map.naver.com/p/entry/place/1031219213,이에케라멘  : 이젠 워낙 유명하죠. 이에케는 돈코츠육수에 쇼유를 블렌딩한 라멘입니다. 진,naver_shared_folder:맛집1(서울)
멘야준 홍대점,일식,일식당,서울 마포구 동교로 128,,0507-1401-0743,false,37.5549263,126.9164357,1070926739,https://map.naver.com/p/entry/place/1070926739,"닭을 통째로 우려낸 닭육수 베이스에 소금간을 한 라멘, 자가제면한 면이 특징",naver_shared_folder:맛집1(서울)
세상끝의라멘,일식,일본식라면,서울 마포구 양화로7길 6-5 와와빌딩 2동 2층 세상끝의라멘,,0507-1375-1361,false,37.5516979,126.9151979,1644407254,https://map.naver.com/p/entry/place/1644407254,"블랙쇼유라멘  : 진한 간장 베이스로 특유의 단맛과 산미가 인상적, 짜다는 의견이 있음",naver_shared_folder:맛집1(서울)
카덴,술집,이자카야,서울 서대문구 연희로 173 거화빌딩 2층,,02-3142-6362,false,37.5725746,126.9350891,218413355,https://map.naver.com/p/entry/place/218413355,,naver_shared_folder:맛집1(서울)
동일루,중식,중식당,서울 마포구 포은로 75 1층,,0507-1436-2224,false,37.5537307,126.9057238,36615409,https://map.naver.com/p/entry/place/36615409,"찹쌀탕수육 / 달인, 수요미식회 등",naver_shared_folder:맛집1(서울)
