name,food_category,address,operating_hours,phone_number,catch_table_reservable,created_at,updated_at,latitude,longitude,naver_category,naver_place_id,naver_link,memo,source
마마리마켓,한식,서울 성동구 연무장18길 16 1층 마마리마켓,,0507-1383-2163,f,2026-05-19 20:15:59.273056+09,2026-05-20 20:07:42.657908+09,37.5393358,127.0620111,한식,1696863258,https://map.naver.com/p/entry/place/1696863258,,naver_shared_folder:맛집1(서울)
금통화로구이,한식,서울 성북구 종암로22길 12-18 1층,,02-918-9292,f,2026-05-19 20:15:59.274023+09,2026-05-20 20:07:42.658877+09,37.5993622,127.0350781,"육류,고기요리",18913565,https://map.naver.com/p/entry/place/18913565,"황태구이, 차돌된장",naver_shared_folder:맛집1(서울)
서가네식탁,중식,서울 강서구 곰달래로53가길 3,,0507-1352-9313,f,2026-05-19 20:15:59.274542+09,2026-05-20 20:07:42.659365+09,37.5336428,126.8591147,중식당,1663265247,https://map.naver.com/p/entry/place/1663265247,"간자장, 볶음짬뽕",naver_shared_folder:맛집1(서울)
홍명,중식,서울 강남구 논현로131길 10 미현빌딩 1층 홍명,,02-548-2223,f,2026-05-19 20:15:59.274945+09,2026-05-20 20:07:42.659791+09,37.5145140,127.0295105,중식당,18505540,https://map.naver.com/p/entry/place/18505540,간자장,naver_shared_folder:맛집1(서울)
당가원,중식,서울 마포구 월드컵북로 173 1층 당가원,,02-302-8186,f,2026-05-19 20:15:59.275443+09,2026-05-20 20:07:42.660352+09,37.5673732,126.9092997,중식당,1678755994,https://map.naver.com/p/entry/place/1678755994,짬뽕 간짜장,naver_shared_folder:맛집1(서울)
산청숯불가든 을지로,한식,서울 중구 을지로 114-6 1층,,02-2273-8188,f,2026-05-19 20:15:59.279086+09,2026-05-20 20:07:42.663409+09,37.5658389,126.9906186,"육류,고기요리",1850187827,https://map.naver.com/p/entry/place/1850187827,,naver_shared_folder:맛집1(서울)
테이블포포,양식,"서울 용산구 대사관로31길 25-12 5층, 테이블포포",,0507-1365-6832,f,2026-05-19 20:15:59.281576+09,2026-05-20 20:07:42.665203+09,37.5346781,127.0052443,이탈리아음식,20561198,https://map.naver.com/p/entry/place/20561198,,naver_shared_folder:맛집1(서울)
거대곰탕 서초점,곰탕,서울 서초구 사임당로 157 B1층 B102호,,02-583-7770,f,2026-05-19 20:15:59.272024+09,2026-05-20 20:07:42.656624+09,37.4924723,127.0268390,"곰탕,설렁탕",2081289739,https://map.naver.com/p/entry/place/2081289739,,naver_shared_folder:맛집1(서울)
최영희언양불고기,한식,서울 성동구 무학봉28길 21 경남빌딩,,02-2294-6077,f,2026-05-19 20:15:59.282836+09,2026-05-20 20:07:42.665954+09,37.5615805,127.0341480,"육류,고기요리",31329502,https://map.naver.com/p/entry/place/31329502,,naver_shared_folder:맛집1(서울)
몽탄,한식,서울 용산구 백범로99길 50,,0507-1418-8592,f,2026-05-19 20:15:59.284264+09,2026-05-20 20:07:42.667516+09,37.5360103,126.9722500,"육류,고기요리",1810277002,https://map.naver.com/p/entry/place/1810277002,우대갈비 트러플계란찜,naver_shared_folder:맛집1(서울)
태화루,중식,서울 중구 퇴계로50길 37,,02-2266-2876,f,2026-05-19 20:15:59.285822+09,2026-05-20 20:07:42.669382+09,37.5610168,127.0011330,중식당,1700640711,https://map.naver.com/p/entry/place/1700640711,,naver_shared_folder:맛집1(서울)
대성각,중식,서울 강서구 양천로30길 32,,02-3661-9483,f,2026-05-19 20:15:59.286058+09,2026-05-20 20:07:42.669627+09,37.5718010,126.8225980,중식당,32096619,https://map.naver.com/p/entry/place/32096619,"간자장, 볶음밥",naver_shared_folder:맛집1(서울)
고미태,일식,서울 마포구 월드컵로 41 1층 고미태,,,f,2026-05-19 20:15:59.286571+09,2026-05-20 20:07:42.67008+09,37.5529842,126.9118914,일식당,1559943764,https://map.naver.com/p/entry/place/1559943764,"카모시오라멘  :  no.1, 계절면요리, 상시메뉴없음, 마감빠름",naver_shared_folder:맛집1(서울)
중화요리 팔공,중식,서울 관악구 남부순환로 1680,,0507-1307-9815,f,2026-05-19 20:15:59.289399+09,2026-05-20 20:07:42.67186+09,37.4841255,126.9371352,중식당,1775787333,https://map.naver.com/p/entry/place/1775787333,자장 탕수육 간자장 유린기,naver_shared_folder:맛집1(서울)
삼선,중식,서울 성북구 삼선교로 22 1층,,0507-1358-7847,f,2026-05-19 20:15:59.289638+09,2026-05-20 20:07:42.672074+09,37.5875527,127.0083147,중식당,1658809286,https://map.naver.com/p/entry/place/1658809286,,naver_shared_folder:맛집1(서울)
진진,중식,서울 마포구 월드컵북로1길 60 1층 진진,,0507-1447-8879,f,2026-05-19 20:15:59.289912+09,2026-05-20 20:07:42.672291+09,37.5537804,126.9184790,중식당,36202928,https://map.naver.com/p/entry/place/36202928,,naver_shared_folder:맛집1(서울)
왕포수산,회,"서울 서대문구 거북골로 8 1,2층",,02-395-6663,f,2026-05-19 20:15:59.282558+09,2026-05-20 20:07:42.665722+09,37.5811823,126.9261622,생선회,1311765086,https://map.naver.com/p/entry/place/1311765086,,naver_shared_folder:맛집1(서울)
포가,중식,서울 마포구 동교로46길 24-4 2층,,0507-1327-5901,f,2026-05-19 20:15:59.290413+09,2026-05-20 20:07:42.672792+09,37.5620264,126.9258433,중식당,1712466624,https://map.naver.com/p/entry/place/1712466624,마늘쫑면,naver_shared_folder:맛집1(서울)
부일숯불갈비,한식,서울 영등포구 영중로6길 23-8,,02-2636-9462,f,2026-05-19 20:15:59.290876+09,2026-05-20 20:07:42.673267+09,37.5181466,126.9086523,"육류,고기요리",18560835,https://map.naver.com/p/entry/place/18560835,,naver_shared_folder:맛집1(서울)
진미반점,중식,서울 용산구 한남대로 158 1층 진미반점,,0507-1382-4225,f,2026-05-19 20:15:59.292453+09,2026-05-20 20:07:42.674666+09,37.5425463,127.0027254,중식당,35559513,https://map.naver.com/p/entry/place/35559513,탕수육 간자장,naver_shared_folder:맛집1(서울)
오향가,중식,서울 송파구 송이로 106,,02-401-6999,f,2026-05-19 20:15:59.294561+09,2026-05-20 20:07:42.676217+09,37.4967290,127.1213730,중식당,19500744,https://map.naver.com/p/entry/place/19500744,,naver_shared_folder:맛집1(서울)
대가방 본점,중식,서울 강남구 봉은사로 333 모아엘가 퍼스트홈 1층,,0507-1467-6336,f,2026-05-19 20:15:59.295059+09,2026-05-20 20:07:42.676436+09,37.5107214,127.0429539,중식당,11839623,https://map.naver.com/p/entry/place/11839623,,naver_shared_folder:맛집1(서울)
대관원,중식,서울 영등포구 당산로37길 1,,02-2068-8791,f,2026-05-19 20:15:59.295684+09,2026-05-20 20:07:42.676681+09,37.5294043,126.8979053,중식당,37236664,https://map.naver.com/p/entry/place/37236664,간자장 탕수육,naver_shared_folder:맛집1(서울)
성산왕갈비,한식,서울 마포구 월드컵북로 233 성산시영아파트내 상가,,02-306-2001,f,2026-05-19 20:15:59.297315+09,2026-05-20 20:07:42.677737+09,37.5699416,126.9032687,"육류,고기요리",37717563,https://map.naver.com/p/entry/place/37717563,,naver_shared_folder:맛집1(서울)
취화원,중식,서울 구로구 경인로47길 134,,02-2066-4952,f,2026-05-19 20:15:59.298608+09,2026-05-20 20:07:42.678861+09,37.5044402,126.8632456,중식당,1340908756,https://map.naver.com/p/entry/place/1340908756,,naver_shared_folder:맛집1(서울)
여기래,한식,서울 용산구 후암로23길 3-7,,02-755-2359,f,2026-05-19 20:15:59.299106+09,2026-05-20 20:07:42.679305+09,37.5492926,126.9773157,한식,35664258,https://map.naver.com/p/entry/place/35664258,,naver_shared_folder:맛집1(서울)
원조호수삼계탕,삼계탕,서울 영등포구 도림로 276 원조호수삼계탕,,0507-1419-2441,f,2026-05-19 20:15:59.290641+09,2026-05-20 20:07:42.673036+09,37.5026579,126.9043894,"백숙,삼계탕",18674644,https://map.naver.com/p/entry/place/18674644,,naver_shared_folder:맛집1(서울)
또순이네집,된장찌개,서울 영등포구 선유로47길 16 오오1004빌딩 1~2층,,02-2672-2255,f,2026-05-19 20:15:59.291096+09,2026-05-20 20:07:42.673489+09,37.5357958,126.8953676,소고기구이,13017157,https://map.naver.com/p/entry/place/13017157,,naver_shared_folder:맛집1(서울)
안동장,중식,서울 중구 을지로 124,,02-2266-3814,f,2026-05-19 20:15:59.300657+09,2026-05-20 20:07:42.680445+09,37.5661354,126.9915576,중식당,11677524,https://map.naver.com/p/entry/place/11677524,오리지널 굴짬뽕,naver_shared_folder:맛집1(서울)
일일향 잠실점,중식,서울 송파구 석촌호수로 290 성우빌딩,,0507-1432-0678,f,2026-05-19 20:15:59.301157+09,2026-05-20 20:07:42.680892+09,37.5111200,127.1073555,중식당,1562143331,https://map.naver.com/p/entry/place/1562143331,,naver_shared_folder:맛집1(서울)
대성각,중식,서울 은평구 녹번로 7 1층 대성각,,02-356-2194,f,2026-05-19 20:15:59.302402+09,2026-05-20 20:07:42.681527+09,37.6030480,126.9267790,중식당,18657304,https://map.naver.com/p/entry/place/18657304,,naver_shared_folder:맛집1(서울)
이안초밥 안녕인사동점,일식,"서울 종로구 인사동길 49 지상 M층 5,6번매장",,02-6949-5288,f,2026-05-19 20:15:59.304639+09,2026-05-20 20:07:42.682621+09,37.5744663,126.9835556,"초밥,롤",1636341982,https://map.naver.com/p/entry/place/1636341982,가성비,naver_shared_folder:맛집1(서울)
[휴점] 윤서울,한식,서울 강남구 선릉로 805 1층,,,f,2026-05-19 20:15:59.305503+09,2026-05-20 20:07:42.683285+09,37.5241350,127.0389980,한식,1698341503,https://map.naver.com/p/entry/place/1698341503,넷플 흑백요리사,naver_shared_folder:맛집1(서울)
에빗,양식,서울 강남구 도산대로45길 10-5 1층 EVETT,,0507-1399-1029,f,2026-05-19 20:15:59.30576+09,2026-05-20 20:07:42.683497+09,37.5234319,127.0362071,양식,1838135293,https://map.naver.com/p/entry/place/1838135293,넷플 흑백요리사,naver_shared_folder:맛집1(서울)
본연,한식,서울 강남구 논현로 742 7층,,0507-1434-0923,f,2026-05-19 20:15:59.30641+09,2026-05-20 20:07:42.684074+09,37.5182879,127.0292407,한식,1308638160,https://map.naver.com/p/entry/place/1308638160,,naver_shared_folder:맛집1(서울)
퍼프룸 X 치즈룸 월드타워,양식,서울 송파구 올림픽로 300 롯데월드몰 5층,,02-3213-4550,f,2026-05-19 20:15:59.307901+09,2026-05-20 20:07:42.685323+09,37.5140522,127.1042624,이탈리아음식,36714351,https://map.naver.com/p/entry/place/36714351,,naver_shared_folder:맛집1(서울)
철수네포장마차,술집,서울 강남구 선릉로66길 8 1층,,02-569-2635,f,2026-05-19 20:15:59.309105+09,2026-05-20 20:07:42.685968+09,37.4984630,127.0525710,포장마차,13485012,https://map.naver.com/p/entry/place/13485012,,naver_shared_folder:맛집1(서울)
돈그리아,한식,서울 강남구 선릉로86길 6-5 프라임빌딩,,,f,2026-05-19 20:15:59.309522+09,2026-05-20 20:07:42.686226+09,37.5028197,127.0506413,한식,20685143,https://map.naver.com/p/entry/place/20685143,,naver_shared_folder:맛집1(서울)
다온카츠 연신내본점,일식 돈카츠,서울 은평구 연서로29길 21-11 1.5층 다온카츠,,0507-1449-9005,f,2026-05-19 20:15:59.300146+09,2026-05-20 20:07:42.680007+09,37.6189289,126.9178881,일식당,1816689066,https://map.naver.com/p/entry/place/1816689066,,naver_shared_folder:맛집1(서울)
마담밍,중식,서울 강남구 선릉로86길 5-4 1층,,02-567-6992,f,2026-05-19 20:15:59.310404+09,2026-05-20 20:07:42.68696+09,37.5035179,127.0502732,중식당,11707122,https://map.naver.com/p/entry/place/11707122,,naver_shared_folder:맛집1(서울)
현래장,중식,서울 마포구 마포대로 20 다보빌딩 지하1층 현래장,,0507-1345-0730,f,2026-05-19 20:15:59.310655+09,2026-05-20 20:07:42.687204+09,37.5383750,126.9449196,중식당,13358442,https://map.naver.com/p/entry/place/13358442,옛날자장 군만두 탕수육,naver_shared_folder:맛집1(서울)
고가길구공탄,한식,서울 용산구 백범로99길 48,,0507-1356-1675,f,2026-05-19 20:15:59.311816+09,2026-05-20 20:07:42.688312+09,37.5360986,126.9721324,돼지고기구이,35407324,https://map.naver.com/p/entry/place/35407324,,naver_shared_folder:맛집1(서울)
조대포 남영본점,한식,서울 용산구 한강대로 272-1 1층,,02-701-1060,f,2026-05-19 20:15:59.312147+09,2026-05-20 20:07:42.688597+09,37.5426096,126.9728974,돼지고기구이,18137751,https://map.naver.com/p/entry/place/18137751,,naver_shared_folder:맛집1(서울)
화양연가,한식,서울 용산구 한강대로76길 5,,070-8950-8059,f,2026-05-19 20:15:59.312409+09,2026-05-20 20:07:42.688842+09,37.5416169,126.9734109,"육류,고기요리",20034529,https://map.naver.com/p/entry/place/20034529,,naver_shared_folder:맛집1(서울)
남영돈,한식,서울 용산구 한강대로80길 17 남영돈,,0507-1351-3598,f,2026-05-19 20:15:59.312656+09,2026-05-20 20:07:42.689073+09,37.5427593,126.9738012,돼지고기구이,19774046,https://map.naver.com/p/entry/place/19774046,전국구급,naver_shared_folder:맛집1(서울)
정성,술집,서울 동작구 보라매로3길 29,,,f,2026-05-19 20:15:59.313116+09,2026-05-20 20:07:42.689559+09,37.4914050,126.9251860,한식,1598594902,https://map.naver.com/p/entry/place/1598594902,"제육볶음, 가성비, 매일 바뀌는 반찬",naver_shared_folder:맛집1(서울)
석교식당,한식,서울 서대문구 통일로 185,,02-363-2803,f,2026-05-19 20:15:59.313358+09,2026-05-20 20:07:42.689785+09,37.5700014,126.9622884,한식,1391058103,https://map.naver.com/p/entry/place/1391058103,,naver_shared_folder:맛집1(서울)
영화루,중식,서울 종로구 자하문로7길 65,,02-738-1218,f,2026-05-19 20:15:59.313587+09,2026-05-20 20:07:42.690003+09,37.5801579,126.9690130,중식당,17898852,https://map.naver.com/p/entry/place/17898852,,naver_shared_folder:맛집1(서울)
공푸 성신여대본점,중식,서울 성북구 삼선교로24길 29,,0507-1314-4683,f,2026-05-19 20:15:59.31382+09,2026-05-20 20:07:42.690216+09,37.5888268,127.0161313,중식당,35168517,https://map.naver.com/p/entry/place/35168517,,naver_shared_folder:맛집1(서울)
정,중식,서울 용산구 청파로47나길 4 2층,,02-719-8719,f,2026-05-19 20:15:59.314039+09,2026-05-20 20:07:42.690445+09,37.5450558,126.9670537,중식당,11600155,https://map.naver.com/p/entry/place/11600155,,naver_shared_folder:맛집1(서울)
중화복춘 연남공원,중식,서울 마포구 동교로 220-7 101호,,0507-1436-2209,f,2026-05-19 20:15:59.314255+09,2026-05-20 20:07:42.690687+09,37.5595498,126.9242399,중식당,38301272,https://map.naver.com/p/entry/place/38301272,,naver_shared_folder:맛집1(서울)
부영각,중식,서울 마포구 토정로 268,,02-716-2413,f,2026-05-19 20:15:59.314491+09,2026-05-20 20:07:42.690907+09,37.5425356,126.9394840,중식당,11626202,https://map.naver.com/p/entry/place/11626202,,naver_shared_folder:맛집1(서울)
이품,중식,서울 서대문구 연희로11길 20,,02-322-6172,f,2026-05-19 20:15:59.317114+09,2026-05-20 20:07:42.69222+09,37.5675500,126.9300765,중식당,19877438,https://map.naver.com/p/entry/place/19877438,,naver_shared_folder:맛집1(서울)
홍릉각,중식,서울 동대문구 약령시로 90,,02-969-7787,f,2026-05-19 20:15:59.317427+09,2026-05-20 20:07:42.692435+09,37.5828930,127.0399870,중식당,18043515,https://map.naver.com/p/entry/place/18043515,,naver_shared_folder:맛집1(서울)
부타이 1막,일식,서울 강남구 테헤란로88길 22 지하1층,,02-544-8422,f,2026-05-19 20:15:59.318235+09,2026-05-20 20:07:42.693082+09,37.5061805,127.0600012,일식당,1144038812,https://map.naver.com/p/entry/place/1144038812,,naver_shared_folder:맛집1(서울)
호호식당 성수,일식,서울 성동구 서울숲4길 25,,0507-1322-2384,f,2026-05-19 20:15:59.318473+09,2026-05-20 20:07:42.693295+09,37.5471671,127.0438549,일식당,1836968731,https://map.naver.com/p/entry/place/1836968731,,naver_shared_folder:맛집1(서울)
멘도무카우,일식 라멘,서울 마포구 동교로18길 41 1층,,0507-1328-9043,f,2026-05-19 20:15:59.310928+09,2026-05-20 20:07:42.687436+09,37.5536415,126.9180832,일본식라면,1948879688,https://map.naver.com/p/entry/place/1948879688,,naver_shared_folder:맛집1(서울)
호호식당 익선,일식,서울 종로구 익선동 170-1,,0507-1315-2384,f,2026-05-19 20:15:59.318954+09,2026-05-20 20:07:42.693762+09,37.5730235,126.9904379,일식당,1765213815,https://map.naver.com/p/entry/place/1765213815,,naver_shared_folder:맛집1(서울)
카쿠시타,술집,서울 마포구 동교로38길 33-15 지하1층,,0507-1348-8793,f,2026-05-19 20:15:59.319197+09,2026-05-20 20:07:42.694004+09,37.5618618,126.9261811,이자카야,1331305271,https://map.naver.com/p/entry/place/1331305271,,naver_shared_folder:맛집1(서울)
카미야,일식,서울 마포구 와우산로21길 28-6,,02-322-5733,f,2026-05-19 20:15:59.319422+09,2026-05-20 20:07:42.694231+09,37.5525803,126.9223720,일식당,19535343,https://map.naver.com/p/entry/place/19535343,,naver_shared_folder:맛집1(서울)
카페나하 본점,카페,서울 마포구 희우정로16길 32 2층,,0507-1306-1632,f,2026-05-19 20:15:59.319893+09,2026-05-20 20:07:42.694671+09,37.5545496,126.9037796,일식당,666867511,https://map.naver.com/p/entry/place/666867511,,naver_shared_folder:맛집1(서울)
동차밥 홍대 연남 본점,일식,서울 마포구 연희로1길 57 3층,,0507-1371-1066,f,2026-05-19 20:15:59.32033+09,2026-05-20 20:07:42.695112+09,37.5614001,126.9263637,일식당,35726772,https://map.naver.com/p/entry/place/35726772,,naver_shared_folder:맛집1(서울)
스즈란테이,일식,서울 용산구 이촌로 245 로얄상가 지하 1층,,02-749-5324,f,2026-05-19 20:15:59.32131+09,2026-05-20 20:07:42.695973+09,37.5199701,126.9743452,일식당,31564552,https://map.naver.com/p/entry/place/31564552,,naver_shared_folder:맛집1(서울)
초이다이닝 송파점,일식,서울 송파구 백제고분로45길 21-1 2층 초이다이닝 송파점,,0507-1312-2347,f,2026-05-19 20:15:59.322806+09,2026-05-20 20:07:42.697079+09,37.5099490,127.1090094,일식당,1285247846,https://map.naver.com/p/entry/place/1285247846,,naver_shared_folder:맛집1(서울)
성수완당,한식,서울 광진구 아차산로26길 13 1층,,0507-1448-5243,f,2026-05-19 20:15:59.32318+09,2026-05-20 20:07:42.697302+09,37.5407157,127.0661492,한식,1683696846,https://map.naver.com/p/entry/place/1683696846,,naver_shared_folder:맛집1(서울)
이키이키,술집,서울 양천구 목동동로14길 10 1층,,0507-1346-0736,f,2026-05-19 20:15:59.323537+09,2026-05-20 20:07:42.697516+09,37.5242033,126.8724941,"우동,소바",1308298219,https://map.naver.com/p/entry/place/1308298219,,naver_shared_folder:맛집1(서울)
바삭마차,술집,서울 마포구 월드컵로13길 64 바삭마차,,0507-1335-4486,f,2026-05-19 20:15:59.32382+09,2026-05-20 20:07:42.697726+09,37.5553289,126.9065291,돈가스,1177971007,https://map.naver.com/p/entry/place/1177971007,,naver_shared_folder:맛집1(서울)
로얄싸롱,양식,서울 서대문구 연희로11가길 43 1F,,02-6956-2112,f,2026-05-19 20:15:59.324503+09,2026-05-20 20:07:42.69816+09,37.5666091,126.9278866,양식,1952089280,https://map.naver.com/p/entry/place/1952089280,,naver_shared_folder:맛집1(서울)
응담말,한식,서울 성북구 동소문로24길 20,,02-926-6762,f,2026-05-19 20:15:59.324869+09,2026-05-20 20:07:42.698396+09,37.5927837,127.0186874,한식,18233363,https://map.naver.com/p/entry/place/18233363,,naver_shared_folder:맛집1(서울)
가양칼국수버섯매운탕,한식,서울 영등포구 국제금융로 78 홍우빌딩 지하 1층,,0507-1399-0438,f,2026-05-19 20:15:59.325174+09,2026-05-20 20:07:42.698619+09,37.5208564,126.9312820,한식,11624237,https://map.naver.com/p/entry/place/11624237,,naver_shared_folder:맛집1(서울)
홍복,중식,서울 중구 남대문시장길 73-3 일신빌딩 1층 - 5층,,02-755-7633,f,2026-05-19 20:15:59.326639+09,2026-05-20 20:07:42.69968+09,37.5609820,126.9800814,중식당,11726524,https://map.naver.com/p/entry/place/11726524,,naver_shared_folder:맛집1(서울)
오향만두,중식,서울 서대문구 연희맛로 22 삼원빌딩,,02-326-2087,f,2026-05-19 20:15:59.327007+09,2026-05-20 20:07:42.699931+09,37.5669752,126.9301144,중식당,32875867,https://map.naver.com/p/entry/place/32875867,,naver_shared_folder:맛집1(서울)
정돈 강남점,일식 돈카츠,서울 강남구 강남대로110길 19-1 1층,,0507-1316-0924,f,2026-05-19 20:15:59.319663+09,2026-05-20 20:07:42.69445+09,37.5039195,127.0264006,돈가스,1183428863,https://map.naver.com/p/entry/place/1183428863,리뷰이벤트 하는 집,naver_shared_folder:맛집1(서울)
방이돈가,한식,서울 송파구 오금로15길 4 1층,,02-415-7220,f,2026-05-19 20:15:59.327719+09,2026-05-20 20:07:42.7004+09,37.5121381,127.1092987,"육류,고기요리",1839678120,https://map.naver.com/p/entry/place/1839678120,,naver_shared_folder:맛집1(서울)
오스테리아 오르조,양식,서울 용산구 한남대로20길 47,,,f,2026-05-19 20:15:59.327985+09,2026-05-20 20:07:42.700641+09,37.5349161,127.0095281,양식,1229610281,https://map.naver.com/p/entry/place/1229610281,,naver_shared_folder:맛집1(서울)
에그앤플라워,양식,서울 용산구 신흥로26길 35 2층,,0507-1328-7681,f,2026-05-19 20:15:59.328237+09,2026-05-20 20:07:42.70087+09,37.5453932,126.9844401,"스파게티,파스타전문",1937120968,https://map.naver.com/p/entry/place/1937120968,,naver_shared_folder:맛집1(서울)
히키니쿠토코메 도산,일식,서울 강남구 선릉로155길 21 2층,,02-545-1129,f,2026-05-19 20:15:59.328489+09,2026-05-20 20:07:42.701087+09,37.5254945,127.0379593,일식당,1673469154,https://map.naver.com/p/entry/place/1673469154,,naver_shared_folder:맛집1(서울)
꿈꾸는돼지 신대방삼거리역점,한식,서울 동작구 여의대방로22길 138,,070-8211-3066,f,2026-05-19 20:15:59.32874+09,2026-05-20 20:07:42.701301+09,37.4983199,126.9276496,돼지고기구이,38632423,https://map.naver.com/p/entry/place/38632423,,naver_shared_folder:맛집1(서울)
마포장,중식,서울 마포구 토정로 196 2층,,02-718-9655,f,2026-05-19 20:15:59.331637+09,2026-05-20 20:07:42.702837+09,37.5452291,126.9325979,중식당,13154789,https://map.naver.com/p/entry/place/13154789,가성비,naver_shared_folder:맛집1(서울)
일 베키오,양식,서울 마포구 월드컵북로 332-12 1층 일 베키오,,0507-1339-0944,f,2026-05-19 20:15:59.331904+09,2026-05-20 20:07:42.70305+09,37.5763890,126.8947123,이탈리아음식,1377420027,https://map.naver.com/p/entry/place/1377420027,,naver_shared_folder:맛집1(서울)
덕순루,중식,서울 용산구 한강대로80길 11,,02-326-1888,f,2026-05-19 20:15:59.332618+09,2026-05-20 20:07:42.703535+09,37.5426658,126.9734335,중식당,1894139697,https://map.naver.com/p/entry/place/1894139697,볶음밥,naver_shared_folder:맛집1(서울)
양자강,중식,서울 용산구 백범로 322 1층,,02-713-2718,f,2026-05-19 20:15:59.333043+09,2026-05-20 20:07:42.703755+09,37.5382386,126.9646674,중식당,18141119,https://map.naver.com/p/entry/place/18141119,,naver_shared_folder:맛집1(서울)
영화장,중식,서울 동대문구 휘경로 3-8,,02-967-9595,f,2026-05-19 20:15:59.33338+09,2026-05-20 20:07:42.703986+09,37.5965708,127.0609381,중식당,18119095,https://map.naver.com/p/entry/place/18119095,,naver_shared_folder:맛집1(서울)
원흥,중식,서울 중구 다동길 46,,02-3789-3624,f,2026-05-19 20:15:59.334153+09,2026-05-20 20:07:42.704647+09,37.5678937,126.9819007,중식당,19867588,https://map.naver.com/p/entry/place/19867588,고기튀김 원툴,naver_shared_folder:맛집1(서울)
홍운장,중식,서울 강남구 삼성로 341 인애빌딩 1층,,02-558-3666,f,2026-05-19 20:15:59.334639+09,2026-05-20 20:07:42.705056+09,37.5019400,127.0589730,중식당,13371770,https://map.naver.com/p/entry/place/13371770,,naver_shared_folder:맛집1(서울)
대성반점,중식,서울 강동구 천중로15길 37,,02-484-8005,f,2026-05-19 20:15:59.334887+09,2026-05-20 20:07:42.705261+09,37.5467363,127.1282067,중식당,18920699,https://map.naver.com/p/entry/place/18920699,,naver_shared_folder:맛집1(서울)
신성각,중식,서울 마포구 임정로 55-1,,02-716-1210,f,2026-05-19 20:15:59.335117+09,2026-05-20 20:07:42.705475+09,37.5447250,126.9577875,중식당,11678637,https://map.naver.com/p/entry/place/11678637,,naver_shared_folder:맛집1(서울)
oriet.oriet.oriet,양식,서울 서초구 서초대로27길 21 1층,,,f,2026-05-19 20:15:59.33534+09,2026-05-20 20:07:42.705684+09,37.4890230,126.9943839,브런치,1563983365,https://map.naver.com/p/entry/place/1563983365,,naver_shared_folder:맛집1(서울)
해남원조김밥,한식,서울 서초구 방배로 200,,02-535-6949,f,2026-05-19 20:15:59.335564+09,2026-05-20 20:07:42.705906+09,37.4912591,126.9916853,종합분식,20870864,https://map.naver.com/p/entry/place/20870864,,naver_shared_folder:맛집1(서울)
우동 키누,술집,서울 서초구 방배로28길 16 우동 키누,,0507-1329-5980,f,2026-05-19 20:15:59.335805+09,2026-05-20 20:07:42.706122+09,37.4903343,126.9930025,"우동,소바",1957101205,https://map.naver.com/p/entry/place/1957101205,,naver_shared_folder:맛집1(서울)
미국식 방배본점,양식,서울 서초구 서초대로29길 17-2 1층,,,f,2026-05-19 20:15:59.336298+09,2026-05-20 20:07:42.706335+09,37.4891668,126.9951775,햄버거,1015077331,https://map.naver.com/p/entry/place/1015077331,,naver_shared_folder:맛집1(서울)
홍대 카레츠,카레,서울 마포구 월드컵로10길 15 1층,,0507-1432-0996,f,2026-05-19 20:15:59.328976+09,2026-05-20 20:07:42.701514+09,37.5547727,126.9125836,돈가스,35403210,https://map.naver.com/p/entry/place/35403210,,naver_shared_folder:맛집1(서울)
띵라면,일식 라멘,서울 성북구 동소문로22길 29-8,,,f,2026-05-19 20:15:59.329409+09,2026-05-20 20:07:42.701734+09,37.5918176,127.0183293,라면,38743104,https://map.naver.com/p/entry/place/38743104,,naver_shared_folder:맛집1(서울)
스시미소,일식,서울 영등포구 국회대로 750 1층 114호 스시미소,,0507-1388-7734,f,2026-05-19 20:15:59.337488+09,2026-05-20 20:07:42.707015+09,37.5282729,126.9164480,"초밥,롤",1429085190,https://map.naver.com/p/entry/place/1429085190,,naver_shared_folder:맛집1(서울)
바스버거 여의도점,술집,서울 영등포구 국제금융로 20 율촌빌딩 지하1층,,0507-1358-6643,f,2026-05-19 20:15:59.337802+09,2026-05-20 20:07:42.70725+09,37.5248824,126.9273154,햄버거,37797658,https://map.naver.com/p/entry/place/37797658,,naver_shared_folder:맛집1(서울)
모토쿠라시,술집,서울 송파구 백제고분로41길 27 202호 나무문,,0507-1318-6327,f,2026-05-19 20:15:59.338082+09,2026-05-20 20:07:42.707472+09,37.5082612,127.1066245,이자카야,1116229050,https://map.naver.com/p/entry/place/1116229050,,naver_shared_folder:맛집1(서울)
진지아,중식,"서울 송파구 백제고분로41길 12-9 1층, 2층",,0507-1317-5356,f,2026-05-19 20:15:59.338348+09,2026-05-20 20:07:42.70769+09,37.5075891,127.1082625,중식당,1214154710,https://map.naver.com/p/entry/place/1214154710,,naver_shared_folder:맛집1(서울)
유가,중식,서울 중구 퇴계로12길 68,,02-3789-9688,f,2026-05-19 20:15:59.338594+09,2026-05-20 20:07:42.707899+09,37.5566901,126.9814671,중식당,868705283,https://map.naver.com/p/entry/place/868705283,,naver_shared_folder:맛집1(서울)
안동반점,중식,서울 성북구 고려대로1길 35-1,,02-923-4448,f,2026-05-19 20:15:59.33884+09,2026-05-20 20:07:42.708115+09,37.5870582,127.0189480,중식당,1205234878,https://map.naver.com/p/entry/place/1205234878,볶음밥,naver_shared_folder:맛집1(서울)
히노야마,일식,서울 양천구 목동서로 349 센트럴프라자 119호,,0507-1305-8667,f,2026-05-19 20:15:59.339082+09,2026-05-20 20:07:42.708339+09,37.5172332,126.8652391,일식당,36771856,https://map.naver.com/p/entry/place/36771856,,naver_shared_folder:맛집1(서울)
우래옥,한식,서울 중구 창경궁로 62-29,,02-2265-0151,f,2026-05-19 20:15:59.339306+09,2026-05-20 20:07:42.708552+09,37.5682697,126.9987029,냉면,11679381,https://map.naver.com/p/entry/place/11679381,,naver_shared_folder:맛집1(서울)
마포양지설렁탕,한식,서울 마포구 새창로 6,,02-716-8616,f,2026-05-19 20:15:59.339526+09,2026-05-20 20:07:42.708761+09,37.5420571,126.9504338,"곰탕,설렁탕",37365482,https://map.naver.com/p/entry/place/37365482,,naver_shared_folder:맛집1(서울)
조조칼국수 시청점,한식,서울 중구 세종대로11길 27 조조칼국수,,0507-1444-4334,f,2026-05-19 20:15:59.339746+09,2026-05-20 20:07:42.708972+09,37.5621434,126.9742849,"칼국수,만두",1092504291,https://map.naver.com/p/entry/place/1092504291,,naver_shared_folder:맛집1(서울)
돈카츠팔월,일식 돈카츠,서울 용산구 한강대로 183 1층 1호 팔월,,0507-1329-1673,f,2026-05-19 20:15:59.342348+09,2026-05-20 20:07:42.711157+09,37.5351085,126.9731383,돈가스,37327204,https://map.naver.com/p/entry/place/37327204,,naver_shared_folder:맛집1(서울)
파이리퍼블릭,양식,서울 마포구 양화로23길 10-10 지하 1층,,0507-1399-1967,f,2026-05-19 20:15:59.341478+09,2026-05-20 20:07:42.710608+09,37.5593125,126.9257306,양식,1518974488,https://map.naver.com/p/entry/place/1518974488,"양갈비, 미트파이",naver_shared_folder:맛집1(서울)
우와 홍대본점,일식,서울 마포구 와우산로21길 21-16 2층,,0507-1414-9500,f,2026-05-19 20:15:59.341948+09,2026-05-20 20:07:42.710896+09,37.5517143,126.9222234,일식당,56228015,https://map.naver.com/p/entry/place/56228015,,naver_shared_folder:맛집1(서울)
비양지식당,한식,서울 성북구 고려대로 47,,02-926-4472,f,2026-05-19 20:15:59.343229+09,2026-05-20 20:07:42.711651+09,37.5865029,127.0247444,한식,1024606281,https://map.naver.com/p/entry/place/1024606281,김치찌개,naver_shared_folder:맛집1(서울)
배재반점,중식,서울 중구 서소문로 103 배재빌딩,,02-755-9076,f,2026-05-19 20:15:59.343725+09,2026-05-20 20:07:42.711935+09,37.5629340,126.9727790,중식당,18105982,https://map.naver.com/p/entry/place/18105982,간짜장,naver_shared_folder:맛집1(서울)
월래순교자관,중식,서울 구로구 디지털로19길 13 1층,,02-855-8488,f,2026-05-19 20:15:59.345488+09,2026-05-20 20:07:42.713092+09,37.4802976,126.8898265,중식당,1673353120,https://map.naver.com/p/entry/place/1673353120,,naver_shared_folder:맛집1(서울)
로라멘,일식,서울 영등포구 도림로131길 17,,02-0012-3456,f,2026-05-19 20:15:59.345818+09,2026-05-20 20:07:42.713315+09,37.5140093,126.8936440,일본식라면,1866981775,https://map.naver.com/p/entry/place/1866981775,,naver_shared_folder:맛집1(서울)
멘쇼,일식,서울 광진구 군자로2길 3,,02-499-8788,f,2026-05-19 20:15:59.346347+09,2026-05-20 20:07:42.713531+09,37.5444485,127.0716882,일본식라면,760819243,https://map.naver.com/p/entry/place/760819243,,naver_shared_folder:맛집1(서울)
라멘다이야,일식,서울 광진구 자양번영로6길 67 1층 라멘다이야,,,f,2026-05-19 20:15:59.346697+09,2026-05-20 20:07:42.713752+09,37.5315848,127.0791684,일본식라면,1663928659,https://map.naver.com/p/entry/place/1663928659,완탕,naver_shared_folder:맛집1(서울)
566라멘,일식,서울 마포구 연남로3길 33 제1층,,,f,2026-05-19 20:15:59.347186+09,2026-05-20 20:07:42.713988+09,37.5605660,126.9208757,일본식라면,1463639648,https://map.naver.com/p/entry/place/1463639648,,naver_shared_folder:맛집1(서울)
라멘 시미즈,일식,서울 종로구 새문안로3길 12 신문로빌딩 지하1층 37호,,02-736-2022,f,2026-05-19 20:15:59.34761+09,2026-05-20 20:07:42.714292+09,37.5713640,126.9729932,일본식라면,1664603313,https://map.naver.com/p/entry/place/1664603313,,naver_shared_folder:맛집1(서울)
단박왕돈까스,일식 돈카츠,서울 용산구 백범로90길 74 이안APT 103동,,02-718-1419,f,2026-05-19 20:15:59.34274+09,2026-05-20 20:07:42.711397+09,37.5378698,126.9705948,돈가스,12856508,https://map.naver.com/p/entry/place/12856508,함박스테이크,naver_shared_folder:맛집1(서울)
라멘쨩,일식,서울 송파구 올림픽로35길 112 장미B상가 지하1층 6호,,02-412-6745,f,2026-05-19 20:15:59.348528+09,2026-05-20 20:07:42.715174+09,37.5177941,127.1017995,일본식라면,1423167834,https://map.naver.com/p/entry/place/1423167834,,naver_shared_folder:맛집1(서울)
라멘 보루도 종묘 서순라길 본점,일식,서울 종로구 서순라길 123-8 1층,,0507-1327-5974,f,2026-05-19 20:15:59.348864+09,2026-05-20 20:07:42.715654+09,37.5756029,126.9911446,일본식라면,1371715546,https://map.naver.com/p/entry/place/1371715546,,naver_shared_folder:맛집1(서울)
이남장 을지로본점,한식,서울 중구 삼일대로12길 16,,02-2267-4081,f,2026-05-19 20:15:59.349634+09,2026-05-20 20:07:42.71663+09,37.5666640,126.9886620,"곰탕,설렁탕",11679393,https://map.naver.com/p/entry/place/11679393,,naver_shared_folder:맛집1(서울)
제주상회,한식,서울 관악구 관악로12길 108 지하1층,,02-883-7083,f,2026-05-19 20:15:59.3501+09,2026-05-20 20:07:42.716998+09,37.4772247,126.9583806,한식,1660727152,https://map.naver.com/p/entry/place/1660727152,,naver_shared_folder:맛집1(서울)
편의방,중식,서울 서대문구 연희로 36,,02-363-5887,f,2026-05-19 20:15:59.35056+09,2026-05-20 20:07:42.717398+09,37.5617816,126.9275231,중식당,36667682,https://map.naver.com/p/entry/place/36667682,,naver_shared_folder:맛집1(서울)
개봉분식,한식,서울 구로구 고척로21나길 65,,02-2625-9465,f,2026-05-19 20:15:59.35142+09,2026-05-20 20:07:42.717925+09,37.5019450,126.8422180,종합분식,20856960,https://map.naver.com/p/entry/place/20856960,,naver_shared_folder:맛집1(서울)
주,중식,서울 서초구 동광로19길 16 복합빌딩,,,f,2026-05-19 20:15:59.351813+09,2026-05-20 20:07:42.718159+09,37.4932389,126.9892812,중식당,13371755,https://map.naver.com/p/entry/place/13371755,,naver_shared_folder:맛집1(서울)
명화원,중식,서울 용산구 한강대로 202,,02-792-2969,f,2026-05-19 20:15:59.352216+09,2026-05-20 20:07:42.718387+09,37.5363550,126.9746187,중식당,11679883,https://map.naver.com/p/entry/place/11679883,,naver_shared_folder:맛집1(서울)
옛날 중국집,중식,서울 성북구 성북로8길 8,,02-764-0094,f,2026-05-19 20:15:59.352649+09,2026-05-20 20:07:42.718608+09,37.5908585,127.0044045,중식당,18893222,https://map.naver.com/p/entry/place/18893222,,naver_shared_folder:맛집1(서울)
마포분식,한식,서울 마포구 굴레방로9길 41 1층,,0507-1315-1018,f,2026-05-19 20:15:59.353399+09,2026-05-20 20:07:42.71904+09,37.5566773,126.9533829,떡볶이,1023755433,https://map.naver.com/p/entry/place/1023755433,,naver_shared_folder:맛집1(서울)
진미식당,한식,서울 용산구 백범로90길 46,,02-703-6842,f,2026-05-19 20:15:59.354032+09,2026-05-20 20:07:42.719506+09,37.5366941,126.9701829,한식,18722136,https://map.naver.com/p/entry/place/18722136,,naver_shared_folder:맛집1(서울)
전주식당,한식,서울 금천구 독산로109길 27 1층 전주식당,,02-831-7935,f,2026-05-19 20:15:59.357122+09,2026-05-20 20:07:42.721751+09,37.4787934,126.9023940,한식,18714553,https://map.naver.com/p/entry/place/18714553,,naver_shared_folder:맛집1(서울)
주부리,한식,서울 서초구 동광로12가길 25 1층 주부리,,0507-1493-8257,f,2026-05-19 20:15:59.358461+09,2026-05-20 20:07:42.722483+09,37.4872724,126.9835054,종합분식,37425693,https://map.naver.com/p/entry/place/37425693,,naver_shared_folder:맛집1(서울)
완차이,중식,서울 서대문구 명물길 50-7 1층 완차이,,0507-1441-0302,f,2026-05-19 20:15:59.359887+09,2026-05-20 20:07:42.723584+09,37.5587237,126.9393929,중식당,1239464884,https://map.naver.com/p/entry/place/1239464884,,naver_shared_folder:맛집1(서울)
후라토식당 여의도직영점,일식,서울 영등포구 국제금융로2길 32 여의도 파이낸스타워 3층 후라토식당,,02-780-7090,f,2026-05-19 20:15:59.360248+09,2026-05-20 20:07:42.72381+09,37.5238174,126.9241474,일식당,1483440401,https://map.naver.com/p/entry/place/1483440401,,naver_shared_folder:맛집1(서울)
현대순대국,순대국,서울 강남구 강남대로124길 20 남경빌딩,,02-515-8708,f,2026-05-19 20:15:59.349269+09,2026-05-20 20:07:42.716152+09,37.5090456,127.0241084,"순대,순댓국",19882368,https://map.naver.com/p/entry/place/19882368,,naver_shared_folder:맛집1(서울)
보배반점 하월곡점,중식,서울 성북구 종암로 184,,02-909-0184,f,2026-05-19 20:15:59.362336+09,2026-05-20 20:07:42.725408+09,37.6063360,127.0314359,중식당,33595461,https://map.naver.com/p/entry/place/33595461,,naver_shared_folder:맛집1(서울)
찜집,한식,서울 중랑구 면목로 287 1층 찜집,,02-494-0044,f,2026-05-19 20:15:59.363273+09,2026-05-20 20:07:42.726239+09,37.5783936,127.0859551,한식,18190983,https://map.naver.com/p/entry/place/18190983,,naver_shared_folder:맛집1(서울)
서울맛집,한식,서울 성동구 성덕정15길 6-9 1층,,0507-1332-2533,f,2026-05-19 20:15:59.364115+09,2026-05-20 20:07:42.726927+09,37.5383073,127.0540167,한식,34787360,https://map.naver.com/p/entry/place/34787360,,naver_shared_folder:맛집1(서울)
수빈식당,한식,서울 광진구 자양로5길 22,,02-444-8286,f,2026-05-19 20:15:59.364781+09,2026-05-20 20:07:42.727365+09,37.5314989,127.0846509,한식,1917316955,https://map.naver.com/p/entry/place/1917316955,,naver_shared_folder:맛집1(서울)
민정식당,한식,서울 광진구 아차산로42길 41-4 1층,,02-452-3574,f,2026-05-19 20:15:59.365052+09,2026-05-20 20:07:42.727585+09,37.5355865,127.0790261,한식,36797971,https://map.naver.com/p/entry/place/36797971,,naver_shared_folder:맛집1(서울)
안녕식당,일식,서울 강동구 천호대로159길 53,,02-473-0543,f,2026-05-19 20:15:59.365768+09,2026-05-20 20:07:42.728231+09,37.5398626,127.1282124,일식당,36262813,https://map.naver.com/p/entry/place/36262813,,naver_shared_folder:맛집1(서울)
가락골마산아구찜,레스토랑,서울 송파구 송이로19길 3 1층,,0507-1370-6666,f,2026-05-19 20:15:59.366007+09,2026-05-20 20:07:42.728443+09,37.4974506,127.1217896,"아귀찜,해물찜",18865800,https://map.naver.com/p/entry/place/18865800,,naver_shared_folder:맛집1(서울)
일미원,한식,서울 강남구 광평로46길 5-6,,02-3412-0081,f,2026-05-19 20:15:59.366244+09,2026-05-20 20:07:42.728653+09,37.4860398,127.0996622,한식,18542038,https://map.naver.com/p/entry/place/18542038,,naver_shared_folder:맛집1(서울)
구찌라쿠,레스토랑,서울 강남구 광평로 280 로즈데일오피스텔 지하2층,,02-2226-2010,f,2026-05-19 20:15:59.366472+09,2026-05-20 20:07:42.728876+09,37.4872953,127.1030873,돈가스,18542748,https://map.naver.com/p/entry/place/18542748,,naver_shared_folder:맛집1(서울)
뽕나무쟁이 선릉본점,한식,서울 강남구 역삼로65길 31,,02-558-9279,f,2026-05-19 20:15:59.36669+09,2026-05-20 20:07:42.729092+09,37.5032108,127.0520516,"족발,보쌈",13468956,https://map.naver.com/p/entry/place/13468956,,naver_shared_folder:맛집1(서울)
소호정 본점,레스토랑,서울 서초구 논현로 27 소호정본관,,02-579-7282,f,2026-05-19 20:15:59.366931+09,2026-05-20 20:07:42.729304+09,37.4732540,127.0487028,국수,11720823,https://map.naver.com/p/entry/place/11720823,,naver_shared_folder:맛집1(서울)
영동족발 본점,한식,서울 서초구 남부순환로358길 8 1층 영동족발 본점,,02-571-3939,f,2026-05-19 20:15:59.367226+09,2026-05-20 20:07:42.729512+09,37.4845761,127.0380511,"족발,보쌈",12917286,https://map.naver.com/p/entry/place/12917286,,naver_shared_folder:맛집1(서울)
청국장과보리밥 청담점,레스토랑,서울 강남구 학동로 521,,02-544-3313,f,2026-05-19 20:15:59.367483+09,2026-05-20 20:07:42.729876+09,37.5199922,127.0557303,보리밥,13548705,https://map.naver.com/p/entry/place/13548705,,naver_shared_folder:맛집1(서울)
영춘옥,한식,서울 종로구 돈화문로5가길 13,,02-765-4237,f,2026-05-19 20:15:59.367741+09,2026-05-20 20:07:42.730254+09,37.5713727,126.9915666,"곰탕,설렁탕",11712508,https://map.naver.com/p/entry/place/11712508,,naver_shared_folder:맛집1(서울)
호수집,레스토랑,서울 중구 청파로 443,,02-392-0695,f,2026-05-19 20:15:59.367981+09,2026-05-20 20:07:42.730568+09,37.5590788,126.9686858,닭요리,37581971,https://map.naver.com/p/entry/place/37581971,,naver_shared_folder:맛집1(서울)
전주전집,술집,서울 동작구 동작대로7길 19,,02-581-1419,f,2026-05-19 20:15:59.368222+09,2026-05-20 20:07:42.730834+09,37.4796725,126.9806619,"전통,민속주점",13419356,https://map.naver.com/p/entry/place/13419356,,naver_shared_folder:맛집1(서울)
옛날한우곱창전문 본점,곱창,서울 강서구 공항대로59길 32,,0507-1335-8026,f,2026-05-19 20:15:59.361016+09,2026-05-20 20:07:42.724301+09,37.5530200,126.8638420,"곱창,막창,양",34699341,https://map.naver.com/p/entry/place/34699341,,naver_shared_folder:맛집1(서울)
조가네갑오징어 사당점,레스토랑,서울 동작구 남부순환로271길 24 1층,,0507-1413-0108,f,2026-05-19 20:15:59.368856+09,2026-05-20 20:07:42.731916+09,37.4779329,126.9801286,오징어요리,33471354,https://map.naver.com/p/entry/place/33471354,,naver_shared_folder:맛집1(서울)
별미볶음점,한식,서울 영등포구 국제금융로6길 33 여의도백화점 지하 1층,,02-761-8188,f,2026-05-19 20:15:59.369125+09,2026-05-20 20:07:42.732196+09,37.5207952,126.9269308,한식,32817544,https://map.naver.com/p/entry/place/32817544,,naver_shared_folder:맛집1(서울)
서울깍두기,한식,서울 영등포구 국제금융로6길 33 지하1층 31호 서울깍두기,,02-783-9628,f,2026-05-19 20:15:59.369383+09,2026-05-20 20:07:42.732444+09,37.5207631,126.9269444,"곰탕,설렁탕",13356741,https://map.naver.com/p/entry/place/13356741,,naver_shared_folder:맛집1(서울)
대한옥,한식,서울 영등포구 영등포로51길 6 1층 대한옥,,02-2633-5052,f,2026-05-19 20:15:59.36968+09,2026-05-20 20:07:42.732737+09,37.5193654,126.9109543,"곰탕,설렁탕",32800192,https://map.naver.com/p/entry/place/32800192,,naver_shared_folder:맛집1(서울)
3일한우국밥,한식,서울 영등포구 영등포로 204,,02-2678-0117,f,2026-05-19 20:15:59.369989+09,2026-05-20 20:07:42.732983+09,37.5199394,126.9040524,국밥,37379272,https://map.naver.com/p/entry/place/37379272,,naver_shared_folder:맛집1(서울)
호박집,한식,서울 영등포구 영등포로 237-1 성일빌딩1층,,02-2634-9703,f,2026-05-19 20:15:59.370322+09,2026-05-20 20:07:42.733242+09,37.5196199,126.9078851,한식,38522360,https://map.naver.com/p/entry/place/38522360,,naver_shared_folder:맛집1(서울)
도원,중식,서울 구로구 디지털로32길 30 108호,,02-856-8988,f,2026-05-19 20:15:59.370642+09,2026-05-20 20:07:42.733493+09,37.4833154,126.8965161,중식당,37155797,https://map.naver.com/p/entry/place/37155797,,naver_shared_folder:맛집1(서울)
수원식당,레스토랑,서울특별시 금천구 시흥동,,,f,2026-05-19 20:15:59.371062+09,2026-05-20 20:07:42.733731+09,37.4545409,126.9019850,음식점,20830788,https://map.naver.com/p/entry/place/20830788,,naver_shared_folder:맛집1(서울)
우리소양평해장국본점,레스토랑,서울 금천구 범안로 1244,,,f,2026-05-19 20:15:59.371499+09,2026-05-20 20:07:42.73397+09,37.4663047,126.9000532,음식점,1684094154,https://map.naver.com/p/entry/place/1684094154,,naver_shared_folder:맛집1(서울)
강촌숯불닭갈비 본점,한식,서울 구로구 공원로6나길 35-2,,,f,2026-05-19 20:15:59.372826+09,2026-05-20 20:07:42.734639+09,37.5044000,126.8917395,음식점,33646760,https://map.naver.com/p/entry/place/33646760,"화장실 불편, 아저씨들 많음",naver_shared_folder:맛집1(서울)
신도림참족발,한식,서울 구로구 경인로 661,,,f,2026-05-19 20:15:59.373113+09,2026-05-20 20:07:42.734852+09,37.5098655,126.8883892,음식점,35853856,https://map.naver.com/p/entry/place/35853856,,naver_shared_folder:맛집1(서울)
현경 목동점,중식,서울 양천구 오목로 312 제일빌딩 지하1층 현경 목동점,,02-2061-1877,f,2026-05-19 20:15:59.37372+09,2026-05-20 20:07:42.735302+09,37.5247060,126.8719460,중식당,18399711,https://map.naver.com/p/entry/place/18399711,,naver_shared_folder:맛집1(서울)
보리밭토속음식점,레스토랑,서울 양천구 신월로15길 15 세제뉴타운아파트,,02-2605-5882,f,2026-05-19 20:15:59.374019+09,2026-05-20 20:07:42.735527+09,37.5198109,126.8414869,보리밥,12070733,https://map.naver.com/p/entry/place/12070733,,naver_shared_folder:맛집1(서울)
마반장 화곡본점,레스토랑,서울 강서구 강서로45길 19 호은빌딩,,02-6052-7112,f,2026-05-19 20:15:59.37432+09,2026-05-20 20:07:42.735732+09,37.5477917,126.8349865,감자탕,12835421,https://map.naver.com/p/entry/place/12835421,,naver_shared_folder:맛집1(서울)
초롱이고모부대찌개,레스토랑,서울 강동구 상암로11길 4 암사시장 1문,,02-442-3546,f,2026-05-19 20:15:59.374648+09,2026-05-20 20:07:42.735939+09,37.5499149,127.1288349,"찌개,전골",11719795,https://map.naver.com/p/entry/place/11719795,,naver_shared_folder:맛집1(서울)
영천영화 청담점,한식,서울 강남구 도산대로90길 3 상민빌딩 1층,,02-3442-0381,f,2026-05-19 20:15:59.375125+09,2026-05-20 20:07:42.736395+09,37.5239502,127.0495268,소고기구이,13124988,https://map.naver.com/p/entry/place/13124988,,naver_shared_folder:맛집1(서울)
구스토타코,레스토랑,서울 마포구 와우산로 41,,02-338-8226,f,2026-05-19 20:15:59.375376+09,2026-05-20 20:07:42.736612+09,37.5481419,126.9227917,"멕시코,남미음식",33237660,https://map.naver.com/p/entry/place/33237660,,naver_shared_folder:맛집1(서울)
홍보각,중식,서울 강남구 봉은사로 130 노보텔 앰배서더 강남 LL층,,0507-1381-6479,f,2026-05-19 20:15:59.375627+09,2026-05-20 20:07:42.736831+09,37.5053621,127.0290189,중식당,1151061731,https://map.naver.com/p/entry/place/1151061731,,naver_shared_folder:맛집1(서울)
삼원가든,한식,서울 강남구 언주로 835,,02-548-3030,f,2026-05-19 20:15:59.375856+09,2026-05-20 20:07:42.73704+09,37.5246751,127.0325490,한식,11718583,https://map.naver.com/p/entry/place/11718583,,naver_shared_folder:맛집1(서울)
스와니예,양식,서울 강남구 강남대로 652 신사스퀘어 2층,,02-3477-9386,f,2026-05-19 20:15:59.376093+09,2026-05-20 20:07:42.737259+09,37.5196632,127.0190103,양식,33979993,https://map.naver.com/p/entry/place/33979993,,naver_shared_folder:맛집1(서울)
문배동육칼 본점,한식,서울 용산구 백범로90길 50,,02-713-6204,f,2026-05-19 20:15:59.376334+09,2026-05-20 20:07:42.737469+09,37.5366330,126.9703366,"칼국수,만두",11717878,https://map.naver.com/p/entry/place/11717878,,naver_shared_folder:맛집1(서울)
다츠 한남,레스토랑,서울 용산구 이태원로55나길 6 1층 1호 다츠,,0507-1309-7445,f,2026-05-19 20:15:59.376561+09,2026-05-20 20:07:42.737677+09,37.5366640,126.9990952,아시아음식,247810366,https://map.naver.com/p/entry/place/247810366,,naver_shared_folder:맛집1(서울)
부타이 2막,일식,서울 중구 충무로5길 6-1 1층,,02-2273-1238,f,2026-05-19 20:15:59.376786+09,2026-05-20 20:07:42.737878+09,37.5651827,126.9923499,일식당,1146715603,https://map.naver.com/p/entry/place/1146715603,,naver_shared_folder:맛집1(서울)
고치비,양식,서울 종로구 필운대로 38 1층 고치비,,070-8869-5776,f,2026-05-19 20:15:59.377057+09,2026-05-20 20:07:42.738088+09,37.5793391,126.9689316,이탈리아음식,1302169952,https://map.naver.com/p/entry/place/1302169952,,naver_shared_folder:맛집1(서울)
고에몬 강남점,양식,서울 서초구 서초대로77길 7 서초빌딩 1층,,02-534-8036,f,2026-05-19 20:15:59.377577+09,2026-05-20 20:07:42.738544+09,37.4984576,127.0264551,"스파게티,파스타전문",31413936,https://map.naver.com/p/entry/place/31413936,,naver_shared_folder:맛집1(서울)
도쿄사이카보 청담,일식,서울 강남구 도산대로101길 9,,02-517-0108,f,2026-05-19 20:15:59.377954+09,2026-05-20 20:07:42.738773+09,37.5257268,127.0523565,일식당,13272850,https://map.naver.com/p/entry/place/13272850,,naver_shared_folder:맛집1(서울)
다움223.1,양식,서울 종로구 자하문로 223-1 지상1층,,0507-1315-8995,f,2026-05-19 20:15:59.378693+09,2026-05-20 20:07:42.739233+09,37.5941765,126.9633197,양식,21283623,https://map.naver.com/p/entry/place/21283623,,naver_shared_folder:맛집1(서울)
누하의 숲,일식,서울 종로구 필운대로 31-1 1F,,02-733-5632,f,2026-05-19 20:15:59.378956+09,2026-05-20 20:07:42.739446+09,37.5787996,126.9687592,일식당,37770441,https://map.naver.com/p/entry/place/37770441,,naver_shared_folder:맛집1(서울)
부촌육회 본점,한식,서울 종로구 종로 200-12 1층 부촌육회,,02-2267-1831,f,2026-05-19 20:15:59.379194+09,2026-05-20 20:07:42.739652+09,37.5704109,126.9999166,"육류,고기요리",36428555,https://map.naver.com/p/entry/place/36428555,,naver_shared_folder:맛집1(서울)
이태리총각 서촌점,양식,서울 종로구 자하문로9길 11,,02-730-8893,f,2026-05-19 20:15:59.37942+09,2026-05-20 20:07:42.739862+09,37.5793481,126.9705236,피자,34786841,https://map.naver.com/p/entry/place/34786841,,naver_shared_folder:맛집1(서울)
포담 서촌본점,중식,서울 종로구 사직로 133-10 2층 포담,,0507-1407-0832,f,2026-05-19 20:15:59.37966+09,2026-05-20 20:07:42.740088+09,37.5763862,126.9734513,중식당,36908457,https://map.naver.com/p/entry/place/36908457,,naver_shared_folder:맛집1(서울)
자하손만두,레스토랑,서울 종로구 백석동길 12,,02-379-2648,f,2026-05-19 20:15:59.379905+09,2026-05-20 20:07:42.740291+09,37.5932163,126.9660928,만두,11688084,https://map.naver.com/p/entry/place/11688084,,naver_shared_folder:맛집1(서울)
에머이 종로본점,레스토랑,서울 종로구 종로12길 6-20,,02-733-0588,f,2026-05-19 20:15:59.380276+09,2026-05-20 20:07:42.740491+09,37.5698186,126.9846233,베트남음식,36959975,https://map.naver.com/p/entry/place/36959975,,naver_shared_folder:맛집1(서울)
광화문미진,한식,서울 종로구 종로 19 르메이에르종로타운1 1층,,02-730-6198,f,2026-05-19 20:15:59.38053+09,2026-05-20 20:07:42.740703+09,37.5705485,126.9798986,한식,11680222,https://map.naver.com/p/entry/place/11680222,,naver_shared_folder:맛집1(서울)
남포면옥,한식,서울 중구 을지로3길 24,,02-777-2269,f,2026-05-19 20:15:59.380762+09,2026-05-20 20:07:42.740902+09,37.5671396,126.9815998,냉면,11664585,https://map.naver.com/p/entry/place/11664585,,naver_shared_folder:맛집1(서울)
하동관 명동본점,한식,서울 중구 명동9길 12,,02-776-5656,f,2026-05-19 20:15:59.380989+09,2026-05-20 20:07:42.741108+09,37.5644272,126.9849722,"곰탕,설렁탕",11679353,https://map.naver.com/p/entry/place/11679353,,naver_shared_folder:맛집1(서울)
사토루 더 서촌,일식,서울 종로구 자하문로7길 11,,0507-1464-0096,f,2026-05-19 20:15:59.381205+09,2026-05-20 20:07:42.741315+09,37.5783639,126.9709856,일식당,1195869561,https://map.naver.com/p/entry/place/1195869561,,naver_shared_folder:맛집1(서울)
필동면옥,한식,서울 중구 서애로 26,,02-2266-2611,f,2026-05-19 20:15:59.381426+09,2026-05-20 20:07:42.741515+09,37.5603727,126.9969235,냉면,11678838,https://map.naver.com/p/entry/place/11678838,,naver_shared_folder:맛집1(서울)
공기식당,레스토랑,서울 종로구 필운대로6길 20-1 1층,,0507-1440-0930,f,2026-05-19 20:15:59.38165+09,2026-05-20 20:07:42.741725+09,37.5803365,126.9695266,카레,1119168687,https://map.naver.com/p/entry/place/1119168687,,naver_shared_folder:맛집1(서울)
두두,한식,서울 종로구 동숭길 63 2층,,0507-1380-1884,f,2026-05-19 20:15:59.381865+09,2026-05-20 20:07:42.741938+09,37.5810119,127.0041381,한식,31592246,https://map.naver.com/p/entry/place/31592246,,naver_shared_folder:맛집1(서울)
콩나물장수,한식,서울 종로구 동숭길 94 1층,,02-763-7999,f,2026-05-19 20:15:59.382085+09,2026-05-20 20:07:42.742145+09,37.5824695,127.0043648,한식,1646299730,https://map.naver.com/p/entry/place/1646299730,,naver_shared_folder:맛집1(서울)
우와 대학로점,일식,서울 종로구 동숭길 78 2층,,0507-1308-9224,f,2026-05-19 20:15:59.382308+09,2026-05-20 20:07:42.742352+09,37.5817583,127.0042725,일식당,1400319959,https://map.naver.com/p/entry/place/1400319959,오코노미야끼,naver_shared_folder:맛집1(서울)
버거파크 혜화점,양식,서울 종로구 대학로11길 5 1층 버거파크,,0507-1475-3009,f,2026-05-19 20:15:59.382542+09,2026-05-20 20:07:42.742555+09,37.5821694,127.0013798,햄버거,13158227,https://map.naver.com/p/entry/place/13158227,,naver_shared_folder:맛집1(서울)
화양연화 본점,레스토랑,서울 종로구 계동길 73-1 지하1층,,0507-1366-2046,f,2026-05-19 20:15:59.382757+09,2026-05-20 20:07:42.742762+09,37.5805539,126.9866829,태국음식,36276297,https://map.naver.com/p/entry/place/36276297,,naver_shared_folder:맛집1(서울)
이태리재,양식,서울 종로구 율곡로1길 74-9,,070-4233-6262,f,2026-05-19 20:15:59.382971+09,2026-05-20 20:07:42.742962+09,37.5787922,126.9817287,이탈리아음식,37741900,https://map.naver.com/p/entry/place/37741900,,naver_shared_folder:맛집1(서울)
mishmash,레스토랑,서울 종로구 창덕궁길 47,,0507-1415-2211,f,2026-05-19 20:15:59.383196+09,2026-05-20 20:07:42.74317+09,37.5796592,126.9891453,퓨전음식,37929317,https://map.naver.com/p/entry/place/37929317,,naver_shared_folder:맛집1(서울)
청수정,한식,서울 종로구 삼청로 91,,0507-1366-8293,f,2026-05-19 20:15:59.383456+09,2026-05-20 20:07:42.743394+09,37.5835571,126.9816875,한식,11569666,https://map.naver.com/p/entry/place/11569666,,naver_shared_folder:맛집1(서울)
만리성,중식,서울 종로구 대학로12길 61 계우빌딩,,02-747-0957,f,2026-05-19 20:15:59.38376+09,2026-05-20 20:07:42.743605+09,37.5814788,127.0039661,중식당,13583086,https://map.naver.com/p/entry/place/13583086,,naver_shared_folder:맛집1(서울)
로코스비비큐 경리단길본점,한식,서울 용산구 회나무로 83,,02-794-3234,f,2026-05-19 20:15:59.384024+09,2026-05-20 20:07:42.74392+09,37.5409757,126.9955532,"육류,고기요리",35678401,https://map.naver.com/p/entry/place/35678401,,naver_shared_folder:맛집1(서울)
평양집,레스토랑,서울 용산구 한강대로 186,,02-793-6866,f,2026-05-19 20:15:59.384265+09,2026-05-20 20:07:42.744259+09,37.5348745,126.9739095,"곱창,막창,양",19872987,https://map.naver.com/p/entry/place/19872987,,naver_shared_folder:맛집1(서울)
중림장설렁탕,한식,서울 중구 청파로 459-1,,02-392-7743,f,2026-05-19 20:15:59.384508+09,2026-05-20 20:07:42.744589+09,37.5602762,126.9677079,"곰탕,설렁탕",11721511,https://map.naver.com/p/entry/place/11721511,냄새싫어하면 불호,naver_shared_folder:맛집1(서울)
후니도니,레스토랑,서울 종로구 종로 19 르메이에르 B113-5호,,02-722-5402,f,2026-05-19 20:15:59.38519+09,2026-05-20 20:07:42.744924+09,37.5707270,126.9798081,돈가스,37287956,https://map.naver.com/p/entry/place/37287956,,naver_shared_folder:맛집1(서울)
가마솥족발순대국,한식,서울 용산구 후암로 62,,02-776-2223,f,2026-05-19 20:15:59.385943+09,2026-05-20 20:07:42.745635+09,37.5514594,126.9771488,한식,18124922,https://map.naver.com/p/entry/place/18124922,,naver_shared_folder:맛집1(서울)
미성옥,한식,서울 중구 명동길 25-11,,02-776-8929,f,2026-05-19 20:15:59.386224+09,2026-05-20 20:07:42.745885+09,37.5641835,126.9839596,"곰탕,설렁탕",11727415,https://map.naver.com/p/entry/place/11727415,,naver_shared_folder:맛집1(서울)
원조순희네빈대떡,레스토랑,서울 종로구 종로32길 5,,02-2264-5057,f,2026-05-19 20:15:59.386583+09,2026-05-20 20:07:42.746116+09,37.5705941,127.0007294,"전,빈대떡",11619260,https://map.naver.com/p/entry/place/11619260,,naver_shared_folder:맛집1(서울)
연길반점,중식,서울 중구 퇴계로 42-2,,0507-1336-9232,f,2026-05-19 20:15:59.387167+09,2026-05-20 20:07:42.746549+09,37.5577500,126.9776375,양꼬치,18690096,https://map.naver.com/p/entry/place/18690096,어향가지,naver_shared_folder:맛집1(서울)
장군보쌈,한식,서울 용산구 새창로45길 29,,0507-1363-4234,f,2026-05-19 20:15:59.387461+09,2026-05-20 20:07:42.746792+09,37.5348155,126.9638932,"족발,보쌈",1042555005,https://map.naver.com/p/entry/place/1042555005,,naver_shared_folder:맛집1(서울)
송원 마포 돼지갈비,한식,서울 영등포구 도림로147길 2-1,,0507-1314-2978,f,2026-05-19 20:15:59.387719+09,2026-05-20 20:07:42.747024+09,37.5166993,126.8891844,"육류,고기요리",19878221,https://map.naver.com/p/entry/place/19878221,,naver_shared_folder:맛집1(서울)
소문난식당,한식,서울 영등포구 도림로141가길 32-1,,02-2635-0570,f,2026-05-19 20:15:59.387979+09,2026-05-20 20:07:42.747251+09,37.5161960,126.8898819,한식,18630454,https://map.naver.com/p/entry/place/18630454,,naver_shared_folder:맛집1(서울)
허브족발,한식,서울 영등포구 당산로 232 2층 허브족발,,02-2633-4339,f,2026-05-19 20:15:59.388212+09,2026-05-20 20:07:42.747462+09,37.5342557,126.9025793,"족발,보쌈",20626597,https://map.naver.com/p/entry/place/20626597,,naver_shared_folder:맛집1(서울)
온천집,레스토랑,서울 종로구 돈화문로11나길 31-8,,0507-1378-8218,f,2026-05-19 20:15:59.388442+09,2026-05-20 20:07:42.747666+09,37.5740315,126.9898057,샤브샤브,1113085292,https://map.naver.com/p/entry/place/1113085292,,naver_shared_folder:맛집1(서울)
하니칼국수,한식,서울 중구 퇴계로 411-15 1층 하니칼국수,,02-3298-6909,f,2026-05-19 20:15:59.388673+09,2026-05-20 20:07:42.747877+09,37.5661854,127.0172182,"칼국수,만두",1964656612,https://map.naver.com/p/entry/place/1964656612,,naver_shared_folder:맛집1(서울)
난포,한식,서울 성동구 서울숲4길 18-8 지층,,02-468-1540,f,2026-05-19 20:15:59.388899+09,2026-05-20 20:07:42.748087+09,37.5470252,127.0426732,한식,1910927846,https://map.naver.com/p/entry/place/1910927846,,naver_shared_folder:맛집1(서울)
진작다이닝 성수점,일식,서울 성동구 왕십리로14나길 10 1층,,0507-1357-7415,f,2026-05-19 20:15:59.389127+09,2026-05-20 20:07:42.748291+09,37.5493520,127.0457186,일식당,1034231470,https://map.naver.com/p/entry/place/1034231470,,naver_shared_folder:맛집1(서울)
맛찬들왕소금구이 발산역점,한식,서울 강서구 강서로 375-7,,02-3661-5026,f,2026-05-19 20:15:59.389561+09,2026-05-20 20:07:42.748782+09,37.5591485,126.8378571,"육류,고기요리",37683705,https://map.naver.com/p/entry/place/37683705,,naver_shared_folder:맛집1(서울)
랑 월,중식,서울 강서구 마곡중앙6로 66 퀸즈파크텐 206호,,02-6411-9323,f,2026-05-19 20:15:59.389812+09,2026-05-20 20:07:42.74901+09,37.5599134,126.8343193,중식당,1942610761,https://map.naver.com/p/entry/place/1942610761,"탕수육, 시그니처 메뉴 : 팔보채",naver_shared_folder:맛집1(서울)
바삭하게 선유도본점,술집,서울 영등포구 양평로19길 10 2층,,0507-1413-6791,f,2026-05-19 20:15:59.390065+09,2026-05-20 20:07:42.749224+09,37.5365425,126.8945610,돈가스,771929956,https://map.naver.com/p/entry/place/771929956,,naver_shared_folder:맛집1(서울)
옥소반 마곡본점,레스토랑,"서울 강서구 마곡중앙6로 45 1층 123호, 124호",,0507-1486-8086,f,2026-05-19 20:15:59.390334+09,2026-05-20 20:07:42.749477+09,37.5605583,126.8327045,샤브샤브,1533244797,https://map.naver.com/p/entry/place/1533244797,,naver_shared_folder:맛집1(서울)
오봉집 발산 본점,한식,서울 강서구 마곡동로4길 15 2층,,0507-1354-7040,f,2026-05-19 20:15:59.390648+09,2026-05-20 20:07:42.749829+09,37.5598716,126.8353531,한식,1572890808,https://map.naver.com/p/entry/place/1572890808,,naver_shared_folder:맛집1(서울)
서울홍성원,중식,서울 강서구 공항대로 206 나인스퀘어 2층,,02-2662-8870,f,2026-05-19 20:15:59.390936+09,2026-05-20 20:07:42.750249+09,37.5587508,126.8302945,중식당,13280178,https://map.naver.com/p/entry/place/13280178,굴탕면,naver_shared_folder:맛집1(서울)
밀양손만두,레스토랑,서울 종로구 계동길 41 1층,,0507-1457-8232,f,2026-05-19 20:15:59.391361+09,2026-05-20 20:07:42.750744+09,37.5791626,126.9866713,만두,20921196,https://map.naver.com/p/entry/place/20921196,,naver_shared_folder:맛집1(서울)
이문설렁탕,한식,서울 종로구 우정국로 38-13,,02-733-6526,f,2026-05-19 20:15:59.391874+09,2026-05-20 20:07:42.751097+09,37.5727663,126.9839047,"곰탕,설렁탕",11711983,https://map.naver.com/p/entry/place/11711983,,naver_shared_folder:맛집1(서울)
두림,레스토랑,서울 종로구 종로7길 29-17,,02-720-0714,f,2026-05-19 20:15:59.392272+09,2026-05-20 20:07:42.7514+09,37.5718416,126.9813999,두부요리,17908313,https://map.naver.com/p/entry/place/17908313,,naver_shared_folder:맛집1(서울)
도원마산아구찜,레스토랑,서울 종로구 삼일대로 438 일승빌딩 1층,,02-765-4009,f,2026-05-19 20:15:59.392642+09,2026-05-20 20:07:42.751735+09,37.5737536,126.9879201,"아귀찜,해물찜",13160852,https://map.naver.com/p/entry/place/13160852,,naver_shared_folder:맛집1(서울)
이경문순대곱창,한식,서울 종로구 돈화문로11나길 5,,02-765-1532,f,2026-05-19 20:15:59.393098+09,2026-05-20 20:07:42.752153+09,37.5730931,126.9908574,한식,33903703,https://map.naver.com/p/entry/place/33903703,,naver_shared_folder:맛집1(서울)
칸다소바 경복궁점,술집,서울 종로구 자하문로7길 5 1층,,02-6405-1662,f,2026-05-19 20:15:59.393476+09,2026-05-20 20:07:42.752506+09,37.5782119,126.9712623,일본식라면,1920065620,https://map.naver.com/p/entry/place/1920065620,마제소바,naver_shared_folder:맛집1(서울)
진중 우육면관 광화문점,레스토랑,서울 종로구 종로7길 29-14 1층 진중 우육면관 광화문,,0507-1313-4830,f,2026-05-19 20:15:59.393756+09,2026-05-20 20:07:42.752785+09,37.5720514,126.9812496,아시아음식,1349236740,https://map.naver.com/p/entry/place/1349236740,,naver_shared_folder:맛집1(서울)
체부동잔치집,레스토랑,서울 종로구 자하문로1길 16,,02-730-5420,f,2026-05-19 20:15:59.394008+09,2026-05-20 20:07:42.753035+09,37.5765394,126.9715263,국수,13156385,https://map.naver.com/p/entry/place/13156385,,naver_shared_folder:맛집1(서울)
진성한우곱창 신당직영점,레스토랑,서울 중구 다산로 243-1,,02-2234-0777,f,2026-05-19 20:15:59.394561+09,2026-05-20 20:07:42.753655+09,37.5648493,127.0159121,"곱창,막창,양",32602489,https://map.naver.com/p/entry/place/32602489,,naver_shared_folder:맛집1(서울)
농민백암순대 시청직영점,레스토랑,서울 중구 남대문로1길 33,,02-755-5232,f,2026-05-19 20:15:59.395249+09,2026-05-20 20:07:42.754324+09,37.5626099,126.9772550,"순대,순댓국",37882995,https://map.naver.com/p/entry/place/37882995,,naver_shared_folder:맛집1(서울)
기절초풍왕순대,레스토랑,서울 관악구 봉천로62길 2,,02-872-8805,f,2026-05-19 20:15:59.395474+09,2026-05-20 20:07:42.754544+09,37.4781279,126.9583940,"순대,순댓국",18709584,https://map.naver.com/p/entry/place/18709584,,naver_shared_folder:맛집1(서울)
신의주찹쌀순대,레스토랑,서울 강남구 영동대로 725,,02-511-9081,f,2026-05-19 20:15:59.395702+09,2026-05-20 20:07:42.754762+09,37.5225508,127.0552200,"순대,순댓국",11717080,https://map.naver.com/p/entry/place/11717080,,naver_shared_folder:맛집1(서울)
일등식당,레스토랑,서울 마포구 방울내로 82,,02-333-0361,f,2026-05-19 20:15:59.395925+09,2026-05-20 20:07:42.754977+09,37.5606012,126.9043521,해장국,33085451,https://map.naver.com/p/entry/place/33085451,,naver_shared_folder:맛집1(서울)
이이요,일식,서울 광진구 능동로32길 6,,02-3437-2225,f,2026-05-19 20:15:59.396141+09,2026-05-20 20:07:42.755179+09,37.5552102,127.0789289,일식당,38738686,https://map.naver.com/p/entry/place/38738686,웨이팅 있음. 양 적음,naver_shared_folder:맛집1(서울)
청와옥 본점,레스토랑,서울 송파구 위례성대로 48 반도빌딩 1층,,0507-1365-3488,f,2026-05-19 20:15:59.396368+09,2026-05-20 20:07:42.755388+09,37.5154323,127.1174620,"순대,순댓국",1111611853,https://map.naver.com/p/entry/place/1111611853,,naver_shared_folder:맛집1(서울)
원소닭/원할매소문난원조닭한마리,레스토랑,서울 종로구 종로40가길 25 원소닭/원할매소문난원조닭한마리,,0507-1315-2078,f,2026-05-19 20:15:59.396588+09,2026-05-20 20:07:42.755603+09,37.5703072,127.0053140,닭요리,11706951,https://map.naver.com/p/entry/place/11706951,,naver_shared_folder:맛집1(서울)
깡통만두,레스토랑,서울 종로구 북촌로2길 5-6 1층,,02-794-4243,f,2026-05-19 20:15:59.396799+09,2026-05-20 20:07:42.755808+09,37.5781764,126.9860918,만두,11863403,https://map.naver.com/p/entry/place/11863403,,naver_shared_folder:맛집1(서울)
최강금돈까스,일식,서울 마포구 월드컵로3길 31-30,,0507-1328-3646,f,2026-05-19 20:15:59.397031+09,2026-05-20 20:07:42.756009+09,37.5499263,126.9109319,돈가스,1508260607,https://map.naver.com/p/entry/place/1508260607,,naver_shared_folder:맛집1(서울)
다운타우너 잠실,양식,서울 송파구 백제고분로45길 3 1층 다운타우너 잠실,,070-8868-3696,f,2026-05-19 20:15:59.397282+09,2026-05-20 20:07:42.756216+09,37.5090876,127.1107563,햄버거,1484348632,https://map.naver.com/p/entry/place/1484348632,,naver_shared_folder:맛집1(서울)
다운타우너 한남,양식,서울 용산구 대사관로5길 12 1층 다운타우너 한남점,,070-8806-3696,f,2026-05-19 20:15:59.39751+09,2026-05-20 20:07:42.75643+09,37.5348368,127.0008698,햄버거,37822450,https://map.naver.com/p/entry/place/37822450,,naver_shared_folder:맛집1(서울)
다운타우너 안국,양식,서울 종로구 북촌로 6-4 1층,,0507-1491-3696,f,2026-05-19 20:15:59.397743+09,2026-05-20 20:07:42.756634+09,37.5774450,126.9862902,햄버거,1778375429,https://map.naver.com/p/entry/place/1778375429,,naver_shared_folder:맛집1(서울)
르프리크 성수,양식,서울 성동구 연무장5길 9-16 블루스톤타워 B103,,0507-1376-0199,f,2026-05-19 20:15:59.397974+09,2026-05-20 20:07:42.756843+09,37.5444391,127.0526591,햄버거,1227114216,https://map.naver.com/p/entry/place/1227114216,치킨버거,naver_shared_folder:맛집1(서울)
제스티살룬 성수,양식,서울 성동구 서울숲4길 13 1층 제스티살룬,,0507-1371-2622,f,2026-05-19 20:15:59.398208+09,2026-05-20 20:07:42.757056+09,37.5475917,127.0423894,햄버거,1172915589,https://map.naver.com/p/entry/place/1172915589,,naver_shared_folder:맛집1(서울)
춘향미엔 왕십리점,중식,서울 성동구 왕십리로21길 26 1층,,02-2281-9031,f,2026-05-19 20:15:59.398425+09,2026-05-20 20:07:42.757261+09,37.5605097,127.0320356,중식당,1643229713,https://map.naver.com/p/entry/place/1643229713,"메인메뉴 하나(온면 추천) 2인당 차돌1, 만두1",naver_shared_folder:맛집1(서울)
부탄츄 신촌점,일식,서울 서대문구 연세로5길 26-9,,02-3144-6604,f,2026-05-19 20:15:59.398772+09,2026-05-20 20:07:42.757464+09,37.5567268,126.9351030,일본식라면,33525384,https://map.naver.com/p/entry/place/33525384,,naver_shared_folder:맛집1(서울)
멘야하나비 합정점,일식,서울 마포구 잔다리로7안길 14 1층,,0507-1449-8059,f,2026-05-19 20:15:59.399088+09,2026-05-20 20:07:42.75767+09,37.5524813,126.9168456,일본식라면,1393927574,https://map.naver.com/p/entry/place/1393927574,,naver_shared_folder:맛집1(서울)
우동가조쿠,술집,서울 성동구 왕십리로 215-1,,0507-1406-2177,f,2026-05-19 20:15:59.399465+09,2026-05-20 20:07:42.757878+09,37.5567720,127.0429406,"우동,소바",32417257,https://map.naver.com/p/entry/place/32417257,붓카케,naver_shared_folder:맛집1(서울)
정육면체 신촌점,레스토랑,서울 서대문구 연세로5다길 22-8 1층 정육면체,,0507-1331-3819,f,2026-05-19 20:15:59.399748+09,2026-05-20 20:07:42.758079+09,37.5568870,126.9346214,아시아음식,1229208931,https://map.naver.com/p/entry/place/1229208931,,naver_shared_folder:맛집1(서울)
멘텐,일식,서울 중구 삼일대로 305 동북빌딩1층,,,f,2026-05-19 20:15:59.400006+09,2026-05-20 20:07:42.758281+09,37.5619803,126.9886351,일본식라면,1161069141,https://map.naver.com/p/entry/place/1161069141,,naver_shared_folder:맛집1(서울)
멘야세븐,일식,서울 강동구 양재대로112길 45 1층,,0507-1357-7807,f,2026-05-19 20:15:59.400241+09,2026-05-20 20:07:42.75849+09,37.5364067,127.1423511,일본식라면,1637966123,https://map.naver.com/p/entry/place/1637966123,,naver_shared_folder:맛집1(서울)
놀부만두,레스토랑,"서울 동대문구 망우로16길 15 1F, 놀부만두",,0507-1476-7552,f,2026-05-19 20:15:59.400468+09,2026-05-20 20:07:42.758693+09,37.5893787,127.0614705,만두,20691128,https://map.naver.com/p/entry/place/20691128,,naver_shared_folder:맛집1(서울)
히타토제면소,술집,서울 종로구 옥인길 19 1층 102호,,,f,2026-05-19 20:15:59.400699+09,2026-05-20 20:07:42.758894+09,37.5806306,126.9674100,"우동,소바",38010668,https://map.naver.com/p/entry/place/38010668,,naver_shared_folder:맛집1(서울)
함반,한식,서울 마포구 월드컵로1길 54 1층 함반,,0507-1336-0394,f,2026-05-19 20:15:59.400924+09,2026-05-20 20:07:42.759114+09,37.5490227,126.9100845,한식,1431631412,https://map.naver.com/p/entry/place/1431631412,,naver_shared_folder:맛집1(서울)
늘푸른목장 잠실본점,한식,서울 송파구 백제고분로9길 34 1F,,0507-1429-4520,f,2026-05-19 20:15:59.401822+09,2026-05-20 20:07:42.759828+09,37.5096583,127.0826375,소고기구이,11679241,https://map.naver.com/p/entry/place/11679241,,naver_shared_folder:맛집1(서울)
신천생태찌개,레스토랑,서울 송파구 올림픽로8길 32 대양빌딩 1층,,02-418-2642,f,2026-05-19 20:15:59.402242+09,2026-05-20 20:07:42.760046+09,37.5087920,127.0805110,"매운탕,해물탕",1683030629,https://map.naver.com/p/entry/place/1683030629,,naver_shared_folder:맛집1(서울)
미로식당,한식,서울 마포구 와우산로30길 80 1층,,0507-1412-3777,f,2026-05-19 20:15:59.40254+09,2026-05-20 20:07:42.760257+09,37.5520504,126.9278854,한식,37915697,https://map.naver.com/p/entry/place/37915697,,naver_shared_folder:맛집1(서울)
왕소야 홍대점,중식,서울 마포구 와우산로25길 13 2층,,0507-1369-8093,f,2026-05-19 20:15:59.402805+09,2026-05-20 20:07:42.760462+09,37.5539894,126.9258355,중식당,1189970521,https://map.naver.com/p/entry/place/1189970521,,naver_shared_folder:맛집1(서울)
교동전선생 종로구청점,술집,"서울 종로구 삼봉로 62 1층, 2층 교동전선생",,0507-1314-9909,f,2026-05-19 20:15:59.403062+09,2026-05-20 20:07:42.760679+09,37.5722543,126.9805352,"전통,민속주점",299672608,https://map.naver.com/p/entry/place/299672608,,naver_shared_folder:맛집1(서울)
히가시,일식,서울 용산구 독서당로 27 102동 102호,,,f,2026-05-19 20:15:59.403302+09,2026-05-20 20:07:42.761016+09,37.5309607,127.0073899,일식당,1142104212,https://map.naver.com/p/entry/place/1142104212,,naver_shared_folder:맛집1(서울)
일일향 삼성11호점,중식,서울 강남구 테헤란로83길 20,,02-554-9882,f,2026-05-19 20:15:59.403527+09,2026-05-20 20:07:42.761233+09,37.5087514,127.0575300,중식당,1419894723,https://map.naver.com/p/entry/place/1419894723,,naver_shared_folder:맛집1(서울)
바스버거 역삼점,술집,서울 강남구 테헤란로26길 10 성보빌딩 지하1층,,0507-1439-6654,f,2026-05-19 20:15:59.403748+09,2026-05-20 20:07:42.761441+09,37.4996833,127.0357711,햄버거,38403519,https://map.naver.com/p/entry/place/38403519,,naver_shared_folder:맛집1(서울)
데일리픽스 강남본점,양식,서울 강남구 논현로85길 70 1층 102호,,0507-1346-2468,f,2026-05-19 20:15:59.403995+09,2026-05-20 20:07:42.761658+09,37.4976844,127.0325700,햄버거,1912493531,https://map.naver.com/p/entry/place/1912493531,,naver_shared_folder:맛집1(서울)
빠넬로,양식,서울 마포구 어울마당로5길 29,,,f,2026-05-19 20:15:59.404225+09,2026-05-20 20:07:42.761857+09,37.5494133,126.9190158,이탈리아음식,33707338,https://map.naver.com/p/entry/place/33707338,파스타,naver_shared_folder:맛집1(서울)
돈까스광명,일식,서울 마포구 포은로 25 1층,,,f,2026-05-19 20:15:59.404456+09,2026-05-20 20:07:42.76205+09,37.5500754,126.9082714,돈가스,1640683116,https://map.naver.com/p/entry/place/1640683116,,naver_shared_folder:맛집1(서울)
카와카츠 합정점,일식,서울 마포구 양화로 78-7 1층 카와카츠,,0507-1365-6317,f,2026-05-19 20:15:59.404671+09,2026-05-20 20:07:42.762267+09,37.5514679,126.9173802,돈가스,1152661518,https://map.naver.com/p/entry/place/1152661518,,naver_shared_folder:맛집1(서울)
노무라,술집,서울 성동구 마장로26길 13 101호,,0507-1315-1351,f,2026-05-19 20:15:59.404897+09,2026-05-20 20:07:42.76268+09,37.5656805,127.0358828,와인,1254918287,https://map.naver.com/p/entry/place/1254918287,,naver_shared_folder:맛집1(서울)
카츠오도 신대방본점,일식,서울 관악구 조원로16가길 51,,0507-1326-4286,f,2026-05-19 20:15:59.405242+09,2026-05-20 20:07:42.762948+09,37.4824836,126.9134221,일식당,1990940670,https://map.naver.com/p/entry/place/1990940670,,naver_shared_folder:맛집1(서울)
초이라멘,일식,서울 종로구 율곡로 290-2,,0507-1406-7666,f,2026-05-19 20:15:59.405748+09,2026-05-20 20:07:42.763174+09,37.5715041,127.0085588,일본식라면,1595913531,https://map.naver.com/p/entry/place/1595913531,,naver_shared_folder:맛집1(서울)
프라자손칼국수,한식,서울 송파구 동남로18길 40 프라자아파트,,02-430-4300,f,2026-05-19 20:15:59.406137+09,2026-05-20 20:07:42.763381+09,37.4930369,127.1340099,"칼국수,만두",20637033,https://map.naver.com/p/entry/place/20637033,,naver_shared_folder:맛집1(서울)
원 디그리 노스 강남점,레스토랑,서울 강남구 학동로43길 8 원 디그리 노스 강남점,,070-4333-8884,f,2026-05-19 20:15:59.406426+09,2026-05-20 20:07:42.763597+09,37.5167856,127.0374458,아시아음식,1287899904,https://map.naver.com/p/entry/place/1287899904,,naver_shared_folder:맛집1(서울)
낙성곱창,레스토랑,서울 동작구 동작대로19길 60,,02-3474-5777,f,2026-05-19 20:15:59.406713+09,2026-05-20 20:07:42.763836+09,37.4836321,126.9783597,"곱창,막창,양",19877338,https://map.naver.com/p/entry/place/19877338,,naver_shared_folder:맛집1(서울)
전주익산,레스토랑,"서울 관악구 신림로59길 14 원조민속순대타운 원빌딩3층 302호, 304호 전주익산",,0507-1439-0848,f,2026-05-19 20:15:59.407102+09,2026-05-20 20:07:42.764193+09,37.4832713,126.9288008,"순대,순댓국",33093067,https://map.naver.com/p/entry/place/33093067,,naver_shared_folder:맛집1(서울)
부농정육식당,한식,서울 송파구 백제고분로28길 29 1층 부농정육식당,,0507-1347-3316,f,2026-05-19 20:15:59.407419+09,2026-05-20 20:07:42.764537+09,37.5004314,127.0913648,"육류,고기요리",37532299,https://map.naver.com/p/entry/place/37532299,,naver_shared_folder:맛집1(서울)
본앤브레드 신관,레스토랑,서울 성동구 마장로42길 1,,02-2294-5005,f,2026-05-19 20:15:59.407678+09,2026-05-20 20:07:42.764823+09,37.5667972,127.0445130,정육식당,1151270351,https://map.naver.com/p/entry/place/1151270351,,naver_shared_folder:맛집1(서울)
가야밀냉면해물칼국수 본점,한식,서울 은평구 대서문길 36 북한산성상가 A동 106호,,0507-1343-5546,f,2026-05-19 20:15:59.407926+09,2026-05-20 20:07:42.765071+09,37.6558159,126.9476228,냉면,33078021,https://map.naver.com/p/entry/place/33078021,,naver_shared_folder:맛집1(서울)
월화식당 마포본점,한식,"서울 마포구 도화길 29 1, 2층",,0507-1410-7596,f,2026-05-19 20:15:59.408163+09,2026-05-20 20:07:42.7653+09,37.5408671,126.9491679,"육류,고기요리",1905133643,https://map.naver.com/p/entry/place/1905133643,,naver_shared_folder:맛집1(서울)
육도,한식,서울 마포구 토정로 261 1층,,0507-1310-3465,f,2026-05-19 20:15:59.408389+09,2026-05-20 20:07:42.765519+09,37.5430508,126.9394028,"육류,고기요리",1393712079,https://map.naver.com/p/entry/place/1393712079,,naver_shared_folder:맛집1(서울)
엘픽,양식,서울 강남구 도산대로78길 25 1층,,070-4264-0033,f,2026-05-19 20:15:59.408615+09,2026-05-20 20:07:42.76574+09,37.5223817,127.0466446,"스테이크,립",1317027054,https://map.naver.com/p/entry/place/1317027054,,naver_shared_folder:맛집1(서울)
부첼리하우스,양식,서울 용산구 독서당로 122-1,,02-792-5676,f,2026-05-19 20:15:59.408846+09,2026-05-20 20:07:42.765957+09,37.5368456,127.0128985,양식,783125368,https://map.naver.com/p/entry/place/783125368,,naver_shared_folder:맛집1(서울)
울프강 스테이크하우스,양식,서울 강남구 선릉로152길 21 영인빌딩 1층,,0507-1486-8700,f,2026-05-19 20:15:59.409068+09,2026-05-20 20:07:42.766165+09,37.5244206,127.0414091,"스테이크,립",36449091,https://map.naver.com/p/entry/place/36449091,,naver_shared_folder:맛집1(서울)
세종한우 학동역점,레스토랑,서울 강남구 학동로 219 국제빌딩 지층,,02-516-3330,f,2026-05-19 20:15:59.409776+09,2026-05-20 20:07:42.766856+09,37.5149648,127.0330116,정육식당,34463139,https://map.naver.com/p/entry/place/34463139,,naver_shared_folder:맛집1(서울)
한남동 감자탕 본점,한식,서울 용산구 대사관로 73 1층,,02-790-8309,f,2026-05-19 20:15:59.409995+09,2026-05-20 20:07:42.767141+09,37.5335499,127.0061771,한식,31427681,https://map.naver.com/p/entry/place/31427681,뼈찜,naver_shared_folder:맛집1(서울)
금고깃집 본점,한식,"서울 강서구 마곡동로 61 109호, 203-205호",,02-3662-8295,f,2026-05-19 20:15:59.410208+09,2026-05-20 20:07:42.767483+09,37.5604919,126.8332173,"육류,고기요리",1988367250,https://map.naver.com/p/entry/place/1988367250,고기 구워줌,naver_shared_folder:맛집1(서울)
등촌 최월선칼국수,한식,서울 강서구 화곡로64길 68,,02-3661-2744,f,2026-05-19 20:15:59.410417+09,2026-05-20 20:07:42.76781+09,37.5560116,126.8566894,"칼국수,만두",11687067,https://map.naver.com/p/entry/place/11687067,,naver_shared_folder:맛집1(서울)
스시오마주,일식,서울 강남구 강남대로152길 67 지하1층 102호,,0507-1324-1836,f,2026-05-19 20:15:59.410638+09,2026-05-20 20:07:42.768091+09,37.5190083,127.0245403,"초밥,롤",1730079135,https://map.naver.com/p/entry/place/1730079135,,naver_shared_folder:맛집1(서울)
왓쇼이켄,일식,서울 강남구 테헤란로4길 46 쌍용플래티넘밸류 B1 120호,,02-508-5127,f,2026-05-19 20:15:59.410863+09,2026-05-20 20:07:42.76833+09,37.4951166,127.0303103,일본식라면,38643764,https://map.naver.com/p/entry/place/38643764,쇼유라멘,naver_shared_folder:맛집1(서울)
오제제 강남점,일식,서울 강남구 강남대로 358,,070-8691-4659,f,2026-05-19 20:15:59.411126+09,2026-05-20 20:07:42.768553+09,37.4950692,127.0298087,일식당,1274621934,https://map.naver.com/p/entry/place/1274621934,,naver_shared_folder:맛집1(서울)
진미식당,레스토랑,서울 마포구 마포대로 186-6,,02-3211-4468,f,2026-05-19 20:15:59.411369+09,2026-05-20 20:07:42.768764+09,37.5506119,126.9557656,게요리,19862126,https://map.naver.com/p/entry/place/19862126,,naver_shared_folder:맛집1(서울)
무탄 코엑스점,중식,서울 강남구 영동대로 513 스타필드 코엑스 B1층 H121호,,0507-1397-0364,f,2026-05-19 20:15:59.411604+09,2026-05-20 20:07:42.768971+09,37.5113961,127.0585504,중식당,1583057180,https://map.naver.com/p/entry/place/1583057180,,naver_shared_folder:맛집1(서울)
동래정 영등포구청 본점,한식,서울 영등포구 당산로30길 5 1층 동래정 영등포구청본점,,0507-1489-9299,f,2026-05-19 20:15:59.411824+09,2026-05-20 20:07:42.76918+09,37.5256837,126.8972736,"육류,고기요리",1405131251,https://map.naver.com/p/entry/place/1405131251,,naver_shared_folder:맛집1(서울)
원조소금구이치맛살집,한식,서울 강동구 명일로 221,,02-483-0092,f,2026-05-19 20:15:59.412051+09,2026-05-20 20:07:42.769395+09,37.5384582,127.1462000,"육류,고기요리",33875522,https://map.naver.com/p/entry/place/33875522,항정살 먹고 김치국밥 꼭 먹을것,naver_shared_folder:맛집1(서울)
다람 강동본점,한식,서울 강동구 양재대로85길 29 1층,,0507-1339-6047,f,2026-05-19 20:15:59.412273+09,2026-05-20 20:07:42.769601+09,37.5246030,127.1329286,"육류,고기요리",13158292,https://map.naver.com/p/entry/place/13158292,,naver_shared_folder:맛집1(서울)
더 이탈리안 클럽,양식,서울 송파구 잠실로 209 KT송파타워 2층 더 이탈리안 클럽,,0507-1330-3238,f,2026-05-19 20:15:59.412663+09,2026-05-20 20:07:42.769799+09,37.5138710,127.1063644,양식,1072373722,https://map.naver.com/p/entry/place/1072373722,,naver_shared_folder:맛집1(서울)
부일갈매기,한식,서울 송파구 삼전로13길 4,,02-412-1462,f,2026-05-19 20:15:59.413031+09,2026-05-20 20:07:42.769992+09,37.5072962,127.0898460,돼지고기구이,18570242,https://map.naver.com/p/entry/place/18570242,,naver_shared_folder:맛집1(서울)
명동교자 본점,한식,서울 중구 명동10길 29,,0507-1366-5348,f,2026-05-19 20:15:59.413379+09,2026-05-20 20:07:42.770194+09,37.5625491,126.9856025,"칼국수,만두",11592650,https://map.naver.com/p/entry/place/11592650,,naver_shared_folder:맛집1(서울)
카츠바이콘반,술집,서울 강남구 선릉로153길 36 1층,,0507-1332-3903,f,2026-05-19 20:15:59.413752+09,2026-05-20 20:07:42.770393+09,37.5247759,127.0364560,일식당,1573951163,https://map.naver.com/p/entry/place/1573951163,,naver_shared_folder:맛집1(서울)
뒤푸리,레스토랑,서울 영등포구 은행로 29 정우빌딩,,02-780-4513,f,2026-05-19 20:15:59.414115+09,2026-05-20 20:07:42.770585+09,37.5290570,126.9218327,"해물,생선요리",19882399,https://map.naver.com/p/entry/place/19882399,,naver_shared_folder:맛집1(서울)
통통돼지뽈살 홍대본점,한식,"서울 마포구 어울마당로 126-1 1층, 지하층",,0507-1387-0570,f,2026-05-19 20:15:59.414452+09,2026-05-20 20:07:42.770786+09,37.5556332,126.9241625,돼지고기구이,19873518,https://map.naver.com/p/entry/place/19873518,,naver_shared_folder:맛집1(서울)
장군집 양평동본점,한식,서울 영등포구 선유서로 97 1층 1호,,02-3667-1392,f,2026-05-19 20:15:59.414827+09,2026-05-20 20:07:42.770984+09,37.5244599,126.8857680,"육류,고기요리",32112973,https://map.naver.com/p/entry/place/32112973,,naver_shared_folder:맛집1(서울)
오가와,일식,서울 종로구 새문안로5길 19,,02-735-1001,f,2026-05-19 20:15:59.415081+09,2026-05-20 20:07:42.771176+09,37.5721808,126.9744800,일식당,13574838,https://map.naver.com/p/entry/place/13574838,,naver_shared_folder:맛집1(서울)
스시키,일식,서울 강남구 선릉로107길 3-4 운경빌딩1층,,0507-1441-2008,f,2026-05-19 20:15:59.415318+09,2026-05-20 20:07:42.771377+09,37.5088896,127.0439238,"초밥,롤",38576093,https://map.naver.com/p/entry/place/38576093,,naver_shared_folder:맛집1(서울)
봉산집 본점,한식,서울 용산구 한강대로62나길 24,,02-793-5022,f,2026-05-19 20:15:59.415542+09,2026-05-20 20:07:42.771569+09,37.5344836,126.9750034,소고기구이,11724751,https://map.naver.com/p/entry/place/11724751,,naver_shared_folder:맛집1(서울)
일미락 목동본점,한식,서울 양천구 목동동로 226-16,,0507-1442-9306,f,2026-05-19 20:15:59.415776+09,2026-05-20 20:07:42.771758+09,37.5254137,126.8729803,돼지고기구이,34043878,https://map.naver.com/p/entry/place/34043878,,naver_shared_folder:맛집1(서울)
목멱산방,한식,서울 중구 퇴계로20길 71 1층 목멱산방,,02-318-4790,f,2026-05-19 20:15:59.416014+09,2026-05-20 20:07:42.771953+09,37.5581107,126.9869447,한식,13573290,https://map.naver.com/p/entry/place/13573290,,naver_shared_folder:맛집1(서울)
광화문국밥,한식,서울 중구 세종대로21길 53,,02-738-5688,f,2026-05-19 20:15:59.41635+09,2026-05-20 20:07:42.772153+09,37.5689749,126.9754124,한식,781105443,https://map.naver.com/p/entry/place/781105443,,naver_shared_folder:맛집1(서울)
청송옥,한식,서울 중구 서소문로11길 14,,02-754-1547,f,2026-05-19 20:15:59.416596+09,2026-05-20 20:07:42.772346+09,37.5634668,126.9730425,국밥,11709589,https://map.naver.com/p/entry/place/11709589,,naver_shared_folder:맛집1(서울)
광화문뚝감,레스토랑,서울 종로구 새문안로3길 21,,02-722-5894,f,2026-05-19 20:15:59.416832+09,2026-05-20 20:07:42.772559+09,37.5720689,126.9725919,감자탕,17902444,https://map.naver.com/p/entry/place/17902444,,naver_shared_folder:맛집1(서울)
고릴라,한식,서울 서대문구 충정로 22-2,,02-312-3541,f,2026-05-19 20:15:59.417865+09,2026-05-20 20:07:42.772993+09,37.5609073,126.9636905,돼지고기구이,13573327,https://map.naver.com/p/entry/place/13573327,,naver_shared_folder:맛집1(서울)
뽐모도로 광화문지점,양식,서울 종로구 새문안로9길 19-1 일선빌딩 1층,,02-722-4675,f,2026-05-19 20:15:59.41815+09,2026-05-20 20:07:42.773204+09,37.5711472,126.9756648,이탈리아음식,11680230,https://map.naver.com/p/entry/place/11680230,,naver_shared_folder:맛집1(서울)
동베이 광화문점,중식,서울 종로구 새문안로5길 8-1 2층 동베이 광화문점,,02-723-8696,f,2026-05-19 20:15:59.418474+09,2026-05-20 20:07:42.773405+09,37.5710179,126.9750402,양꼬치,1962205483,https://map.naver.com/p/entry/place/1962205483,,naver_shared_folder:맛집1(서울)
마곡오리,레스토랑,서울 강서구 양천로30길 11,,02-3662-5292,f,2026-05-19 20:15:59.41876+09,2026-05-20 20:07:42.773603+09,37.5726730,126.8228080,오리요리,31266496,https://map.naver.com/p/entry/place/31266496,,naver_shared_folder:맛집1(서울)
한성식당,한식,서울 중구 서소문로11길 8 1층 한성,,02-752-2056,f,2026-05-19 20:15:59.41901+09,2026-05-20 20:07:42.773814+09,37.5633103,126.9730392,한식,11735008,https://map.naver.com/p/entry/place/11735008,,naver_shared_folder:맛집1(서울)
성너머집,레스토랑,서울 은평구 불광로18길 13-1,,02-764-8571,f,2026-05-19 20:15:59.419283+09,2026-05-20 20:07:42.774031+09,37.6225071,126.9328375,"백숙,삼계탕",12768215,https://map.naver.com/p/entry/place/12768215,,naver_shared_folder:맛집1(서울)
성북동누룽지백숙,한식,서울 성북구 성북로31길 9,,02-764-0707,f,2026-05-19 20:15:59.419644+09,2026-05-20 20:07:42.774235+09,37.5945857,126.9905008,한식,11727585,https://map.naver.com/p/entry/place/11727585,,naver_shared_folder:맛집1(서울)
낙동강,한식,서울 중구 을지로1길 34 낙동강,,0507-1400-1797,f,2026-05-19 20:15:59.420056+09,2026-05-20 20:07:42.77443+09,37.5676050,126.9798345,"육류,고기요리",18001853,https://map.naver.com/p/entry/place/18001853,,naver_shared_folder:맛집1(서울)
대박곱창구이,한식,서울 영등포구 당산로30길 6-1 1층 대박곱창,,0507-1348-0209,f,2026-05-19 20:15:59.420608+09,2026-05-20 20:07:42.774623+09,37.5255260,126.8973390,"곱창,막창,양",13072460,https://map.naver.com/p/entry/place/13072460,,naver_shared_folder:맛집1(서울)
화목순대국전문 광화문1호점,레스토랑,서울 종로구 새문안로5길 11,,02-723-8313,f,2026-05-19 20:15:59.420924+09,2026-05-20 20:07:42.77481+09,37.5712514,126.9747764,"순대,순댓국",20867980,https://map.naver.com/p/entry/place/20867980,,naver_shared_folder:맛집1(서울)
한담,한식,서울 마포구 양화로7길 49 배아띠빌딩 1층 한담,,0507-1415-3446,f,2026-05-19 20:15:59.421188+09,2026-05-20 20:07:42.775009+09,37.5528095,126.9139021,돼지고기구이,37933357,https://map.naver.com/p/entry/place/37933357,,naver_shared_folder:맛집1(서울)
옥동식,한식,서울 마포구 양화로7길 44-10,,,f,2026-05-19 20:15:59.421433+09,2026-05-20 20:07:42.7752+09,37.5526833,126.9144811,국밥,859857359,https://map.naver.com/p/entry/place/859857359,,naver_shared_folder:맛집1(서울)
오죽이네,레스토랑,서울 종로구 돈화문로11가길 25,,02-741-8874,f,2026-05-19 20:15:59.42167+09,2026-05-20 20:07:42.775395+09,37.5738124,126.9908395,닭요리,19418573,https://map.naver.com/p/entry/place/19418573,,naver_shared_folder:맛집1(서울)
올인,레스토랑,서울 종로구 대학로1길 34-16,,02-745-6663,f,2026-05-19 20:15:59.421911+09,2026-05-20 20:07:42.775598+09,37.5724749,127.0001638,돈가스,19414190,https://map.naver.com/p/entry/place/19414190,,naver_shared_folder:맛집1(서울)
무명식당,레스토랑,서울 중구 세종대로 55 지하2층,,,f,2026-05-19 20:15:59.422138+09,2026-05-20 20:07:42.775792+09,37.5616649,126.9749759,한정식,1203959170,https://map.naver.com/p/entry/place/1203959170,,naver_shared_folder:맛집1(서울)
와룡동닭매운탕,레스토랑,서울 종로구 율곡로10길 30 동주빌딩 1층,,02-743-1134,f,2026-05-19 20:15:59.422359+09,2026-05-20 20:07:42.775984+09,37.5761086,126.9909994,닭요리,35593459,https://map.naver.com/p/entry/place/35593459,,naver_shared_folder:맛집1(서울)
한일식당,일식,서울 종로구 수표로20길 16-17,,02-2279-7343,f,2026-05-19 20:15:59.422572+09,2026-05-20 20:07:42.776175+09,37.5698898,126.9911286,생선구이,11862556,https://map.naver.com/p/entry/place/11862556,,naver_shared_folder:맛집1(서울)
교대이층집 교대본점,한식,서울 서초구 서초대로50길 24 청화빌딩 2층,,0507-1429-6692,f,2026-05-19 20:15:59.422822+09,2026-05-20 20:07:42.776417+09,37.4921113,127.0129575,"육류,고기요리",35624097,https://map.naver.com/p/entry/place/35624097,,naver_shared_folder:맛집1(서울)
남부 서초본점,한식,서울 서초구 효령로52길 5 1층,,0507-1339-7567,f,2026-05-19 20:15:59.423057+09,2026-05-20 20:07:42.77672+09,37.4839296,127.0128802,"육류,고기요리",1979024190,https://map.naver.com/p/entry/place/1979024190,,naver_shared_folder:맛집1(서울)
마루심 반포점,레스토랑,서울 서초구 고무래로10길 10 청구빌딩 1층,,02-592-8998,f,2026-05-19 20:15:59.423279+09,2026-05-20 20:07:42.776954+09,37.5019278,127.0105785,"장어,먹장어요리",20206990,https://map.naver.com/p/entry/place/20206990,,naver_shared_folder:맛집1(서울)
조연탄 목동본점,한식,서울 강서구 곰달래로60길 33 1층 조연탄 목동본점,,0507-1494-2013,f,2026-05-19 20:15:59.423495+09,2026-05-20 20:07:42.777193+09,37.5309023,126.8632392,한식,20848484,https://map.naver.com/p/entry/place/20848484,,naver_shared_folder:맛집1(서울)
농민백암순대 역삼직영점,레스토랑,서울 강남구 역삼로3길 20-4 1층,,02-501-2772,f,2026-05-19 20:15:59.423947+09,2026-05-20 20:07:42.777617+09,37.4949366,127.0314467,"순대,순댓국",20694317,https://map.naver.com/p/entry/place/20694317,,naver_shared_folder:맛집1(서울)
초가삼계탕,레스토랑,서울 금천구 시흥대로38길 43 훼밀리연립,,02-893-9939,f,2026-05-19 20:15:59.424165+09,2026-05-20 20:07:42.777848+09,37.4454198,126.9042446,"백숙,삼계탕",18543190,https://map.naver.com/p/entry/place/18543190,,naver_shared_folder:맛집1(서울)
오센,술집,서울 동작구 동작대로27나길 8 1층,,02-3478-1559,f,2026-05-19 20:15:59.424376+09,2026-05-20 20:07:42.778172+09,37.4871971,126.9807561,이자카야,20103976,https://map.naver.com/p/entry/place/20103976,,naver_shared_folder:맛집1(서울)
도동집,한식,서울 용산구 후암로48길 1,,02-772-9463,f,2026-05-19 20:15:59.424598+09,2026-05-20 20:07:42.778432+09,37.5528552,126.9767946,한식,37641712,https://map.naver.com/p/entry/place/37641712,,naver_shared_folder:맛집1(서울)
땅코참숯구이 본점,한식,서울 성동구 행당로17길 26 1층 땅코참숯구이,,0507-1311-6908,f,2026-05-19 20:15:59.424829+09,2026-05-20 20:07:42.778653+09,37.5606964,127.0330078,돼지고기구이,1328684927,https://map.naver.com/p/entry/place/1328684927,,naver_shared_folder:맛집1(서울)
탕화쿵푸마라탕 만리동점,중식,서울 중구 만리동2가 179-1,,02-363-3737,f,2026-05-19 20:15:59.425047+09,2026-05-20 20:07:42.778864+09,37.5537698,126.9647607,마라탕,1785506378,https://map.naver.com/p/entry/place/1785506378,,naver_shared_folder:맛집1(서울)
능동미나리 신용산점,한식,"서울 용산구 한강대로40길 28 1, 2층",,0507-1388-1035,f,2026-05-19 20:15:59.425511+09,2026-05-20 20:07:42.779355+09,37.5300731,126.9708333,한식,1036043935,https://map.naver.com/p/entry/place/1036043935,,naver_shared_folder:맛집1(서울)
라멘트럭 상수본점,일식,서울 마포구 독막로14길 31 1층 라멘트럭,,02-336-8456,f,2026-05-19 20:15:59.425728+09,2026-05-20 20:07:42.779588+09,37.5474948,126.9225997,일본식라면,36097869,https://map.naver.com/p/entry/place/36097869,,naver_shared_folder:맛집1(서울)
존라멘,일식,서울 중구 퇴계로49길 33 1층,,02-2272-0200,f,2026-05-19 20:15:59.425941+09,2026-05-20 20:07:42.779798+09,37.5630282,126.9990638,일본식라면,1037217659,https://map.naver.com/p/entry/place/1037217659,,naver_shared_folder:맛집1(서울)
교레츠라멘,일식,서울 구로구 경인로 643 205동 1층 115호 (신도림 2차동아아파트 상가),,070-7585-2310,f,2026-05-19 20:15:59.426159+09,2026-05-20 20:07:42.780023+09,37.5083518,126.8864744,일본식라면,1173342402,https://map.naver.com/p/entry/place/1173342402,,naver_shared_folder:맛집1(서울)
옥토끼제면소,일식,서울 은평구 불광천길 536 애필리움아파트,,02-6104-6353,f,2026-05-19 20:15:59.426428+09,2026-05-20 20:07:42.780229+09,37.5979270,126.9163954,일본식라면,1647364324,https://map.naver.com/p/entry/place/1647364324,,naver_shared_folder:맛집1(서울)
마시타야,일식,서울 마포구 와우산로29라길 26,,0507-1368-5715,f,2026-05-19 20:15:59.426847+09,2026-05-20 20:07:42.780437+09,37.5547962,126.9266263,일본식라면,543015182,https://map.naver.com/p/entry/place/543015182,웨이팅 극악,naver_shared_folder:맛집1(서울)
오레노라멘 인사점,일식,서울 종로구 율곡로 49-4 1층,,0507-1341-3539,f,2026-05-19 20:15:59.427193+09,2026-05-20 20:07:42.780639+09,37.5765297,126.9845721,일본식라면,1133826226,https://map.naver.com/p/entry/place/1133826226,,naver_shared_folder:맛집1(서울)
이츠모라멘,일식,서울 마포구 와우산로23길 18-7 2층 202호,,0507-1309-1997,f,2026-05-19 20:15:59.427455+09,2026-05-20 20:07:42.780839+09,37.5539865,126.9246495,일본식라면,1542231124,https://map.naver.com/p/entry/place/1542231124,,naver_shared_folder:맛집1(서울)
하카타분코,일식,서울 마포구 독막로19길 43,,02-338-5536,f,2026-05-19 20:15:59.427689+09,2026-05-20 20:07:42.781031+09,37.5489357,126.9237639,일본식라면,11678649,https://map.naver.com/p/entry/place/11678649,,naver_shared_folder:맛집1(서울)
우마이도 건대점,일식,서울 광진구 능동로 135-2 우마이도 건대점,,0507-1406-8788,f,2026-05-19 20:15:59.427914+09,2026-05-20 20:07:42.781231+09,37.5429797,127.0717470,일본식라면,12764501,https://map.naver.com/p/entry/place/12764501,,naver_shared_folder:맛집1(서울)
지로우 라멘,일식,서울 마포구 와우산로29가길 79 1층,,02-323-3225,f,2026-05-19 20:15:59.428138+09,2026-05-20 20:07:42.781427+09,37.5537179,126.9251809,일식당,31135248,https://map.naver.com/p/entry/place/31135248,돈코츠,naver_shared_folder:맛집1(서울)
반라이,일식,서울 마포구 독막로15길 3-12 102호,,070-1111-0000,f,2026-05-19 20:15:59.4284+09,2026-05-20 20:07:42.781619+09,37.5484285,126.9215290,일본식라면,1456435836,https://map.naver.com/p/entry/place/1456435836,츠케멘,naver_shared_folder:맛집1(서울)
멘타미,일식,서울 용산구 한강대로76길 9 1층,,02-794-4307,f,2026-05-19 20:15:59.42863+09,2026-05-20 20:07:42.781814+09,37.5416418,126.9736389,일본식라면,1809018107,https://map.naver.com/p/entry/place/1809018107,새우츠케멘,naver_shared_folder:맛집1(서울)
쿄 라멘,일식,"서울 마포구 동교로46길 25 지층 쿄, 라멘",,0507-1327-8043,f,2026-05-19 20:15:59.428848+09,2026-05-20 20:07:42.782012+09,37.5622875,126.9261473,일본식라면,1636571197,https://map.naver.com/p/entry/place/1636571197,ㅠ웨이팅 긺,naver_shared_folder:맛집1(서울)
멘카오리,일식,서울 서초구 사평대로57길 39-2,,02-6014-1786,f,2026-05-19 20:15:59.429076+09,2026-05-20 20:07:42.782205+09,37.5060403,127.0226871,일본식라면,1138570926,https://map.naver.com/p/entry/place/1138570926,,naver_shared_folder:맛집1(서울)
오레노라멘송파,일식,서울 송파구 백제고분로45길 17-3 일층,,02-418-3539,f,2026-05-19 20:15:59.429306+09,2026-05-20 20:07:42.7824+09,37.5095295,127.1094332,일본식라면,1713900848,https://map.naver.com/p/entry/place/1713900848,,naver_shared_folder:맛집1(서울)
멘야하나비 송파본점,일식,서울 송파구 백제고분로45길 38 1층 멘야하나비 송파본점,,0507-1408-1108,f,2026-05-19 20:15:59.429528+09,2026-05-20 20:07:42.7826+09,37.5109657,127.1077484,일본식라면,37373204,https://map.naver.com/p/entry/place/37373204,,naver_shared_folder:맛집1(서울)
멘지 망원점,일식,서울 마포구 월드컵로11길 8 103호 멘지,,0507-1493-1984,f,2026-05-19 20:15:59.429755+09,2026-05-20 20:07:42.782795+09,37.5548972,126.9103679,일본식라면,1266391111,https://map.naver.com/p/entry/place/1266391111,"토리파이탄  : 자가제면하는 멘지, 여기도 좀 칩니다.",naver_shared_folder:맛집1(서울)
사루카메,일식,서울 마포구 연남로 15 1층,,,f,2026-05-19 20:15:59.429977+09,2026-05-20 20:07:42.782989+09,37.5610641,126.9227332,일본식라면,1763607050,https://map.naver.com/p/entry/place/1763607050,꽃게라멘 : 단맛이 튐,naver_shared_folder:맛집1(서울)
덴키 도곡본점,일식,서울 강남구 논현로30길 43 1층,,070-7756-2999,f,2026-05-19 20:15:59.430616+09,2026-05-20 20:07:42.7836+09,37.4848824,127.0451597,일식당,1297421035,https://map.naver.com/p/entry/place/1297421035,이에케라멘  : 이에케라멘을 잘 다루는 업장으로 극악한 염도가 특징.,naver_shared_folder:맛집1(서울)
카덴,우동,서울 서대문구 연희로 173 거화빌딩 2층,,02-3142-6362,f,2026-05-19 20:15:59.432196+09,2026-05-20 20:07:42.78532+09,37.5725746,126.9350891,이자카야,218413355,https://map.naver.com/p/entry/place/218413355,,naver_shared_folder:맛집1(서울)
대성갈비,한식,서울 성동구 상원1길 26 서울숲 A타워 101호~103호,,02-464-3012,f,2026-05-19 20:15:59.281821+09,2026-05-20 20:07:42.665434+09,37.5464113,127.0482346,"육류,고기요리",11398664,https://map.naver.com/p/entry/place/11398664,,naver_shared_folder:맛집1(서울)
동천홍 논현점,중식,서울 강남구 논현로150길 18 삼호빌딩,,0507-1396-8885,f,2026-05-19 20:15:59.28334+09,2026-05-20 20:07:42.666423+09,37.5193098,127.0300182,중식당,32260586,https://map.naver.com/p/entry/place/32260586,볶음밥,naver_shared_folder:맛집1(서울)
강동원,중식,서울 마포구 망원로 3 1층,,,f,2026-05-19 20:15:59.292072+09,2026-05-20 20:07:42.674281+09,37.5559259,126.8972947,중식당,1835965631,https://map.naver.com/p/entry/place/1835965631,"간자장, 탕수육, 덮밥/ 메뉴 나오는데 오래 걸림, 긴 웨이팅, 오픈시간 대기 40번대",naver_shared_folder:맛집1(서울)
츠키젠,일식,서울 마포구 독막로8길 23 1층,,0507-1362-1655,f,2026-05-19 20:15:59.318696+09,2026-05-20 20:07:42.693502+09,37.5468047,126.9180064,일식당,1172910030,https://map.naver.com/p/entry/place/1172910030,,naver_shared_folder:맛집1(서울)
진미,중식,서울 서대문구 연희맛로 36 1층,,02-322-8338,f,2026-05-19 20:15:59.327391+09,2026-05-20 20:07:42.700146+09,37.5679155,126.9309740,중식당,1902737844,https://map.naver.com/p/entry/place/1902737844,,naver_shared_folder:맛집1(서울)
이태리포차,술집,서울 강서구 양천로30길 32 마곡빌딩1층 이태리포차,,0507-1311-4109,f,2026-05-19 20:15:59.332254+09,2026-05-20 20:07:42.703287+09,37.5718118,126.8225969,이탈리아음식,1177405017,https://map.naver.com/p/entry/place/1177405017,,naver_shared_folder:맛집1(서울)
산동만두,중식,서울 마포구 도화길 22-10,,02-711-3958,f,2026-05-19 20:15:59.337093+09,2026-05-20 20:07:42.706749+09,37.5400270,126.9485369,중식당,13477593,https://map.naver.com/p/entry/place/13477593,,naver_shared_folder:맛집1(서울)
아스카 라멘,일식,서울 동작구 흑석로 88 102호,,0507-1346-6804,f,2026-05-19 20:15:59.348019+09,2026-05-20 20:07:42.714747+09,37.5071120,126.9593658,일본식라면,1724218736,https://map.naver.com/p/entry/place/1724218736,,naver_shared_folder:맛집1(서울)
구뜰집,한식,"서울 서초구 서초대로23길 14 1층, 구뜰집",,0507-1447-8592,f,2026-05-19 20:15:59.368456+09,2026-05-20 20:07:42.731068+09,37.4881540,126.9925703,"육류,고기요리",19861892,https://map.naver.com/p/entry/place/19861892,,naver_shared_folder:맛집1(서울)
호호식당 대학로,일식,서울 종로구 대학로9길 35,,0507-1317-2384,f,2026-05-19 20:15:59.377308+09,2026-05-20 20:07:42.738296+09,37.5818886,127.0000654,일식당,85806567,https://map.naver.com/p/entry/place/85806567,,naver_shared_folder:맛집1(서울)
푼크툼,양식,서울 종로구 필운대로 31,,0507-1493-1019,f,2026-05-19 20:15:59.378411+09,2026-05-20 20:07:42.738995+09,37.5788029,126.9688162,양식,1464503439,https://map.naver.com/p/entry/place/1464503439,"친절, 길거리 주차, 3식탁, 외풍으로 겨울엔 좀 추움",naver_shared_folder:맛집1(서울)
다도해,레스토랑,서울 강서구 마곡동로 62 마곡사이언스타워 2층 212호,,0507-1360-0177,f,2026-05-19 20:15:59.389344+09,2026-05-20 20:07:42.74852+09,37.5605538,126.8338901,생선회,1044332048,https://map.naver.com/p/entry/place/1044332048,,naver_shared_folder:맛집1(서울)
동일루,중식,서울 마포구 포은로 75 1층,,0507-1436-2224,f,2026-05-19 20:15:59.432406+09,2026-05-20 20:07:42.785604+09,37.5537307,126.9057238,중식당,36615409,https://map.naver.com/p/entry/place/36615409,"찹쌀탕수육 / 달인, 수요미식회 등",naver_shared_folder:맛집1(서울)
라멘모토,일식 라멘,서울 서초구 신반포로 325 1층,,0507-1346-2370,f,2026-05-19 20:15:59.268798+09,2026-05-20 20:07:42.648904+09,37.5106609,127.0192526,일본식라면,20550982,https://map.naver.com/p/entry/place/20550982,츠케멘,naver_shared_folder:맛집1(서울)
원조사철냉면,냉면,서울 성동구 마조로 17 한양시장,,02-2293-0959,f,2026-05-19 20:15:59.355054+09,2026-05-20 20:07:42.720312+09,37.5593241,127.0407750,냉면,20880768,https://map.naver.com/p/entry/place/20880768,,naver_shared_folder:맛집1(서울)
코끼리만두,만두,서울 강서구 공항대로51길 27,,02-3662-1215,f,2026-05-19 20:15:59.360606+09,2026-05-20 20:07:42.724032+09,37.5555369,126.8577357,만두,38014741,https://map.naver.com/p/entry/place/38014741,,naver_shared_folder:맛집1(서울)
신토불이 떡볶이 본점,분식,서울 광진구 자양로43길 42,,02-457-2475,f,2026-05-19 20:15:59.363509+09,2026-05-20 20:07:42.726443+09,37.5526000,127.0905000,떡볶이,18818884,https://map.naver.com/p/entry/place/18818884,,naver_shared_folder:맛집1(서울)
브루클린더버거조인트 광화문디타워점,양식,서울 종로구 종로3길 17 1층,,02-2251-8080,f,2026-05-19 20:15:59.394283+09,2026-05-20 20:07:42.753288+09,37.5712926,126.9787856,햄버거,1303273851,https://map.naver.com/p/entry/place/1303273851,,naver_shared_folder:맛집1(서울)
타비함박,일식,서울 서대문구 연희맛로 17-14 B101호,,0507-1400-3677,f,2026-05-19 20:15:59.401147+09,2026-05-20 20:07:42.759322+09,37.5671941,126.9290427,일식당,38486473,https://map.naver.com/p/entry/place/38486473,,naver_shared_folder:맛집1(서울)
경아식당 본점,한식,서울 강서구 마곡중앙6로 85 1층 103호,,02-3662-7040,f,2026-05-19 20:15:59.401565+09,2026-05-20 20:07:42.759567+09,37.5601954,126.8368109,한식,1128721873,https://map.naver.com/p/entry/place/1128721873,,naver_shared_folder:맛집1(서울)
시오,양식,서울 강남구 도산대로54길 33 시오,,0507-1335-6239,f,2026-05-19 20:15:59.409286+09,2026-05-20 20:07:42.766368+09,37.5205383,127.0391841,양식,1648407120,https://map.naver.com/p/entry/place/1648407120,호불호 나뉨,naver_shared_folder:맛집1(서울)
익스퀴진,양식,서울 강남구 삼성로140길 6 라파빌딩,,02-542-6921,f,2026-05-19 20:15:59.409545+09,2026-05-20 20:07:42.766616+09,37.5210769,127.0496916,양식,38781115,https://map.naver.com/p/entry/place/38781115,가성비로는 압도적 1위,naver_shared_folder:맛집1(서울)
효자동목고기,한식,서울 종로구 종로16길 24 관철동26번지,,02-737-7989,f,2026-05-19 20:15:59.417311+09,2026-05-20 20:07:42.772762+09,37.5689692,126.9885983,돼지고기구이,37161773,https://map.naver.com/p/entry/place/37161773,,naver_shared_folder:맛집1(서울)
한옥집김치찜 서대문본점,한식,서울 서대문구 통일로9길 12 1층 한옥집김치찜 서대문본점,,0507-1391-8653,f,2026-05-19 20:15:59.42372+09,2026-05-20 20:07:42.777398+09,37.5672532,126.9644220,한식,11593472,https://map.naver.com/p/entry/place/11593472,,naver_shared_folder:맛집1(서울)
연남제비,한식,서울 마포구 성미산로 186 1층 연남제비,,02-6080-9808,f,2026-05-19 20:15:59.425271+09,2026-05-20 20:07:42.779077+09,37.5630981,126.9260248,"육류,고기요리",1090105095,https://map.naver.com/p/entry/place/1090105095,,naver_shared_folder:맛집1(서울)
라무라 합정,일식,서울 마포구 포은로 21 1층 라무라 합정,,0507-1332-8490,f,2026-05-19 20:15:59.430195+09,2026-05-20 20:07:42.783179+09,37.5498062,126.9086185,일본식라면,1676250764,https://map.naver.com/p/entry/place/1676250764,"블랙쇼유라멘 : 라멘, 닭육수 베이스이나, 비쥬얼에 비해 맛은 많이 따라오지 못하는 느낌",naver_shared_folder:맛집1(서울)
남도보쌈파전,보쌈,"서울 동대문구 장한로 160 대진빌딩 1층, 남도보쌈파전",,0507-1327-3236,f,2026-05-19 20:15:59.272546+09,2026-05-20 20:07:42.657305+09,37.5746648,127.0722887,한식,1055934431,https://map.naver.com/p/entry/place/1055934431,,naver_shared_folder:맛집1(서울)
마이니치라멘 삼성니보시점,일식 라멘,서울 강남구 봉은사로63길 7 A동 102호,,0507-1400-3323,f,2026-05-19 20:15:59.273474+09,2026-05-20 20:07:42.658412+09,37.5119318,127.0469878,일본식라면,1709306398,https://map.naver.com/p/entry/place/1709306398,,naver_shared_folder:맛집1(서울)
카츠디나인 신대방삼거리 본점,일식 돈카츠,서울 동작구 국사봉1길 12-5 1층,,0507-1307-4150,f,2026-05-19 20:15:59.27588+09,2026-05-20 20:07:42.660802+09,37.4985132,126.9292373,돈가스,1102241191,https://map.naver.com/p/entry/place/1102241191,,naver_shared_folder:맛집1(서울)
이츠야,일식 돈카츠,서울 마포구 양화로6길 99-9,,02-336-9244,f,2026-05-19 20:15:59.276224+09,2026-05-20 20:07:42.661156+09,37.5487338,126.9199539,돈가스,1954904928,https://map.naver.com/p/entry/place/1954904928,,naver_shared_folder:맛집1(서울)
브네,일식 돈카츠,서울 광진구 군자로 70 106호 VENEZ 브네,,0507-1307-5794,f,2026-05-19 20:15:59.276489+09,2026-05-20 20:07:42.661417+09,37.5489039,127.0710627,와인,1580083114,https://map.naver.com/p/entry/place/1580083114,,naver_shared_folder:맛집1(서울)
모루카츠,일식 돈카츠,"서울 종로구 종로 19 르메이에르 지하1층 117-1(홀), 116-1(배달)",,070-4027-4963,f,2026-05-19 20:15:59.276765+09,2026-05-20 20:07:42.661658+09,37.5710372,126.9796639,돈가스,1352913596,https://map.naver.com/p/entry/place/1352913596,,naver_shared_folder:맛집1(서울)
빼누카츠,일식 돈카츠,서울 관악구 청룡길 20 1층 빼누카츠,,0507-1432-9894,f,2026-05-19 20:15:59.277086+09,2026-05-20 20:07:42.661968+09,37.4808849,126.9459889,돈가스,1202495197,https://map.naver.com/p/entry/place/1202495197,,naver_shared_folder:맛집1(서울)
콘반,일식 돈카츠,서울 동대문구 한천로26길 48-12 듀펠센터 1층,,0507-1316-3903,f,2026-05-19 20:15:59.277375+09,2026-05-20 20:07:42.662243+09,37.5706113,127.0679701,일식당,1024555085,https://map.naver.com/p/entry/place/1024555085,,naver_shared_folder:맛집1(서울)
톤제,일식 돈카츠,서울 성북구 보문로30라길 3 1층,,0507-1390-8993,f,2026-05-19 20:15:59.277616+09,2026-05-20 20:07:42.662483+09,37.5899876,127.0195913,돈가스,1194465602,https://map.naver.com/p/entry/place/1194465602,,naver_shared_folder:맛집1(서울)
휴돈정,일식 돈카츠,서울 노원구 동일로191가길 6 104호,,0507-1432-5889,f,2026-05-19 20:15:59.277842+09,2026-05-20 20:07:42.662709+09,37.6252595,127.0716898,돈가스,1316857053,https://map.naver.com/p/entry/place/1316857053,,naver_shared_folder:맛집1(서울)
훈타,일식 돈카츠,서울 강서구 곰달래로26길 15 1층 104호 검정한문간판,,0507-1457-9046,f,2026-05-19 20:15:59.278256+09,2026-05-20 20:07:42.662952+09,37.5299784,126.8494271,돈가스,1630549459,https://map.naver.com/p/entry/place/1630549459,,naver_shared_folder:맛집1(서울)
오레노라멘 본점,일식 라멘,서울 마포구 독막로8길 16 1층 오레노라멘,,0507-1375-3539,f,2026-05-19 20:15:59.278721+09,2026-05-20 20:07:42.663177+09,37.5472577,126.9177893,일본식라면,814481697,https://map.naver.com/p/entry/place/814481697,토리파이탄,naver_shared_folder:맛집1(서울)
돈까스전원,일식 돈카츠,서울 성동구 왕십리로 330-6 1층 돈까스전원,,0507-1346-7104,f,2026-05-19 20:15:59.27944+09,2026-05-20 20:07:42.663627+09,37.5629362,127.0334688,돈가스,1233112165,https://map.naver.com/p/entry/place/1233112165,,naver_shared_folder:맛집1(서울)
이이네,일식 라멘,서울 용산구 소월로2길 13 지하1층 이이네(요아정 오른쪽길입구),,0507-1420-9787,f,2026-05-19 20:15:59.279731+09,2026-05-20 20:07:42.663852+09,37.5543371,126.9767423,일식당,965428244,https://map.naver.com/p/entry/place/965428244,,naver_shared_folder:맛집1(서울)
무교동북어국집,한식,서울 중구 을지로1길 38,,02-777-3891,f,2026-05-19 20:15:59.280011+09,2026-05-20 20:07:42.664083+09,37.5677548,126.9798583,해장국,11619941,https://map.naver.com/p/entry/place/11619941,,naver_shared_folder:맛집1(서울)
포하임 선릉점,베트남음식,서울 강남구 선릉로 424 2층 6호,,0507-1315-4351,f,2026-05-19 20:15:59.280266+09,2026-05-20 20:07:42.664301+09,37.5029179,127.0500875,베트남음식,1267112584,https://map.naver.com/p/entry/place/1267112584,,naver_shared_folder:맛집1(서울)
옛날할머니분식,분식,서울 중랑구 중랑역로 14-1 1층,,02-496-2130,f,2026-05-19 20:15:59.280646+09,2026-05-20 20:07:42.664529+09,37.5955222,127.0765887,떡볶이,1825526846,https://map.naver.com/p/entry/place/1825526846,,naver_shared_folder:맛집1(서울)
The 맛나곱창,곱창,서울 노원구 동일로 1106 1층,,02-948-5453,f,2026-05-19 20:15:59.281004+09,2026-05-20 20:07:42.664753+09,37.6288221,127.0719511,"곱창,막창,양",37032075,https://map.naver.com/p/entry/place/37032075,,naver_shared_folder:맛집1(서울)
담택,일식 라멘,서울 마포구 동교로12안길 51 1층,,0507-1347-4561,f,2026-05-19 20:15:59.281314+09,2026-05-20 20:07:42.664989+09,37.5544749,126.9151547,일본식라면,1068351637,https://map.naver.com/p/entry/place/1068351637,,naver_shared_folder:맛집1(서울)
원보양꼬치 건대본점,양꼬치,서울 광진구 동일로18길 23,,02-467-7771,f,2026-05-19 20:15:59.283086+09,2026-05-20 20:07:42.666188+09,37.5398077,127.0642696,양꼬치,20502394,https://map.naver.com/p/entry/place/20502394,볶음밥,naver_shared_folder:맛집1(서울)
임병주산동칼국수,칼국수,서울 서초구 강남대로37길 65,,02-3473-7972,f,2026-05-19 20:15:59.283572+09,2026-05-20 20:07:42.666682+09,37.4845716,127.0300034,"칼국수,만두",1420055829,https://map.naver.com/p/entry/place/1420055829,,naver_shared_folder:맛집1(서울)
할매집,족발,서울 종로구 사직로12길 1-5,,02-735-2608,f,2026-05-19 20:15:59.283799+09,2026-05-20 20:07:42.666909+09,37.5756601,126.9714754,한식,19489992,https://map.naver.com/p/entry/place/19489992,,naver_shared_folder:맛집1(서울)
농민백암순대 본점,순대국,서울 강남구 선릉로86길 40-4 1층,,02-555-9603,f,2026-05-19 20:15:59.284033+09,2026-05-20 20:07:42.66724+09,37.5037000,127.0530139,"순대,순댓국",13149768,https://map.naver.com/p/entry/place/13149768,,naver_shared_folder:맛집1(서울)
헤키,일식 돈카츠,서울 마포구 동교로9길 33 1층 헤키,,070-7773-9870,f,2026-05-19 20:15:59.284497+09,2026-05-20 20:07:42.667765+09,37.5552383,126.9097924,돈가스,1532303105,https://map.naver.com/p/entry/place/1532303105,히레카츠,naver_shared_folder:맛집1(서울)
마쯔무라돈까스 본점,일식 돈카츠,서울 도봉구 노해로63길 84 지하1층,,02-990-9801,f,2026-05-19 20:15:59.284719+09,2026-05-20 20:07:42.668115+09,37.6527870,127.0465560,돈가스,11686105,https://map.naver.com/p/entry/place/11686105,,naver_shared_folder:맛집1(서울)
진주회관,콩국수,서울 중구 세종대로11길 26,,02-753-5388,f,2026-05-19 20:15:59.284941+09,2026-05-20 20:07:42.668404+09,37.5623209,126.9745130,국수,11679660,https://map.naver.com/p/entry/place/11679660,,naver_shared_folder:맛집1(서울)
카와카츠 본점,일식 돈카츠,서울 마포구 동교로 126 1층 102호,,0507-1415-2064,f,2026-05-19 20:15:59.285171+09,2026-05-20 20:07:42.66866+09,37.5547362,126.9161059,돈가스,1924306900,https://map.naver.com/p/entry/place/1924306900,,naver_shared_folder:맛집1(서울)
정돈 대학로본점,일식 돈카츠,서울 종로구 대학로9길 12 지층,,0507-1408-0924,f,2026-05-19 20:15:59.285392+09,2026-05-20 20:07:42.668901+09,37.5818016,127.0011237,돈가스,37126807,https://map.naver.com/p/entry/place/37126807,,naver_shared_folder:맛집1(서울)
애성회관한우곰탕,곰탕,서울 중구 남대문로5길 23 세창빌딩 1층,,02-352-0303,f,2026-05-19 20:15:59.285608+09,2026-05-20 20:07:42.669138+09,37.5624499,126.9789139,"곰탕,설렁탕",32770171,https://map.naver.com/p/entry/place/32770171,한우수육,naver_shared_folder:맛집1(서울)
풍년뼈다귀해장국,해장국,서울 송파구 가락로 94,,02-415-0631,f,2026-05-19 20:15:59.28633+09,2026-05-20 20:07:42.669858+09,37.5007409,127.1066239,해장국,20630935,https://map.naver.com/p/entry/place/20630935,,naver_shared_folder:맛집1(서울)
크레이지카츠,일식 돈카츠,"서울 마포구 포은로2나길 44 , 2층",,0507-1404-7219,f,2026-05-19 20:15:59.286931+09,2026-05-20 20:07:42.670303+09,37.5504385,126.9097576,돈가스,38555759,https://map.naver.com/p/entry/place/38555759,특로스,naver_shared_folder:맛집1(서울)
유즈라멘,일식 라멘,서울 중구 만리재로 217,,070-4177-0365,f,2026-05-19 20:15:59.287305+09,2026-05-20 20:07:42.670533+09,37.5568411,126.9682545,일본식라면,1539185460,https://map.naver.com/p/entry/place/1539185460,,naver_shared_folder:맛집1(서울)
일월카츠 계동점,일식 돈카츠,서울 종로구 계동길 17 1층 일월카츠,,0507-1339-7638,f,2026-05-19 20:15:59.287848+09,2026-05-20 20:07:42.670756+09,37.5781458,126.9865352,돈가스,1965419438,https://map.naver.com/p/entry/place/1965419438,,naver_shared_folder:맛집1(서울)
오근내 닭갈비,닭갈비,서울 용산구 이촌로29길 15,,02-797-0131,f,2026-05-19 20:15:59.288232+09,2026-05-20 20:07:42.670975+09,37.5245093,126.9596616,닭갈비,18168200,https://map.naver.com/p/entry/place/18168200,,naver_shared_folder:맛집1(서울)
오제제 광화문,일식 돈카츠,서울 중구 세종대로 136 지하 2층 201호 오제제,,070-4616-4653,f,2026-05-19 20:15:59.288592+09,2026-05-20 20:07:42.671199+09,37.5684246,126.9782701,일식당,1094455540,https://map.naver.com/p/entry/place/1094455540,,naver_shared_folder:맛집1(서울)
삼미당 신촌점,마제소바,서울 서대문구 연세로7길 40 1층 삼미당 신촌점,,0507-1365-6569,f,2026-05-19 20:15:59.288879+09,2026-05-20 20:07:42.67143+09,37.5578794,126.9346982,일본식라면,1108308342,https://map.naver.com/p/entry/place/1108308342,"시오라멘, 쇼유라멘, 탄탄멘",naver_shared_folder:맛집1(서울)
잘빠진메밀 서촌 본점,막국수,서울 종로구 자하문로11길 4,,0507-1403-1214,f,2026-05-19 20:15:59.28915+09,2026-05-20 20:07:42.671645+09,37.5796715,126.9709994,막국수,35135719,https://map.naver.com/p/entry/place/35135719,,naver_shared_folder:맛집1(서울)
황평집닭곰탕,닭곰탕,서울 중구 마른내로 74,,02-2266-6875,f,2026-05-19 20:15:59.290155+09,2026-05-20 20:07:42.672512+09,37.5640999,126.9960896,"곰탕,설렁탕",1192717326,https://map.naver.com/p/entry/place/1192717326,,naver_shared_folder:맛집1(서울)
덕원꼬리곰탕방치탕전문,꼬리곰탕,서울 영등포구 버드나루로6길 6,,02-2634-8663,f,2026-05-19 20:15:59.291397+09,2026-05-20 20:07:42.67372+09,37.5222629,126.9120038,"곰탕,설렁탕",19878290,https://map.naver.com/p/entry/place/19878290,,naver_shared_folder:맛집1(서울)
밍글스,레스토랑,서울 강남구 도산대로67길 19 힐탑빌딩 2층,,02-515-7306,f,2026-05-19 20:15:59.291703+09,2026-05-20 20:07:42.673978+09,37.5253845,127.0441702,한식,35215752,https://map.naver.com/p/entry/place/35215752,,naver_shared_folder:맛집1(서울)
오토김밥 본점,분식,서울 용산구 녹사평대로26길 93 스페이스소마빌딩 1층 오토김밥,,02-794-0110,f,2026-05-19 20:15:59.292799+09,2026-05-20 20:07:42.674983+09,37.5316212,126.9946436,종합분식,37629568,https://map.naver.com/p/entry/place/37629568,닭강정,naver_shared_folder:맛집1(서울)
옹기종기감자옹심이,막국수,서울 구로구 서해안로30길 13-8 1층,,,f,2026-05-19 20:15:59.293085+09,2026-05-20 20:07:42.675253+09,37.4932019,126.8445054,한식,1904170793,https://map.naver.com/p/entry/place/1904170793,,naver_shared_folder:맛집1(서울)
대장장이화덕피자,피자,서울 종로구 북촌로 42-4,,0507-1315-4298,f,2026-05-19 20:15:59.29336+09,2026-05-20 20:07:42.675504+09,37.5805827,126.9853702,피자,19877723,https://map.naver.com/p/entry/place/19877723,,naver_shared_folder:맛집1(서울)
갯마을 한강로점,만두전골,서울 용산구 서빙고로 56,,02-795-2277,f,2026-05-19 20:15:59.293666+09,2026-05-20 20:07:42.675757+09,37.5230428,126.9702770,"칼국수,만두",18164147,https://map.naver.com/p/entry/place/18164147,,naver_shared_folder:맛집1(서울)
진주집,닭칼국수,서울 영등포구 국제금융로6길 33 지하 1층,,0507-1379-6108,f,2026-05-19 20:15:59.294063+09,2026-05-20 20:07:42.675992+09,37.5206924,126.9268251,국수,11678773,https://map.naver.com/p/entry/place/11678773,,naver_shared_folder:맛집1(서울)
엉짱윤치킨,닭강정,서울 양천구 목동동로 177 1층 101호,,02-2061-9982,f,2026-05-19 20:15:59.296161+09,2026-05-20 20:07:42.676955+09,37.5216391,126.8704458,"치킨,닭강정",1429372651,https://map.naver.com/p/entry/place/1429372651,,naver_shared_folder:맛집1(서울)
우메돈,일식 돈카츠,서울 중구 충무로 31 1층,,0507-1497-3124,f,2026-05-19 20:15:59.296593+09,2026-05-20 20:07:42.677237+09,37.5640129,126.9927585,돈가스,1946183790,https://map.naver.com/p/entry/place/1946183790,안심,naver_shared_folder:맛집1(서울)
알고,파스타,서울 광진구 광나루로17길 10 2층,,0507-1332-2645,f,2026-05-19 20:15:59.296954+09,2026-05-20 20:07:42.677491+09,37.5480922,127.0728518,"스파게티,파스타전문",810682299,https://map.naver.com/p/entry/place/810682299,,naver_shared_folder:맛집1(서울)
연하동 연남본점,일식,서울 마포구 연남로 6,,070-7176-6017,f,2026-05-19 20:15:59.297615+09,2026-05-20 20:07:42.677968+09,37.5605090,126.9235456,일식당,1668003266,https://map.naver.com/p/entry/place/1668003266,,naver_shared_folder:맛집1(서울)
하동진,국밥,서울 중구 다산로 253-1 1층,,02-2233-4888,f,2026-05-19 20:15:59.297886+09,2026-05-20 20:07:42.678191+09,37.5657781,127.0159934,국밥,1228283944,https://map.naver.com/p/entry/place/1228283944,,naver_shared_folder:맛집1(서울)
스바루,우동,서울 서초구 방배중앙로21길 7 1층 스바루,,02-596-4882,f,2026-05-19 20:15:59.298143+09,2026-05-20 20:07:42.67841+09,37.4924211,126.9861405,"우동,소바",1106627412,https://map.naver.com/p/entry/place/1106627412,,naver_shared_folder:맛집1(서울)
플레이버타운,족발튀김,"서울 성동구 서울숲4길 18-7 1층, 2층",,0507-1367-9954,f,2026-05-19 20:15:59.298379+09,2026-05-20 20:07:42.678624+09,37.5469832,127.0429156,아시아음식,1530362375,https://map.naver.com/p/entry/place/1530362375,,naver_shared_folder:맛집1(서울)
동산닭요리,닭한마리,서울 구로구 경인로47다길 3,,02-2687-3378,f,2026-05-19 20:15:59.298829+09,2026-05-20 20:07:42.679086+09,37.5036224,126.8640002,한식,13150353,https://map.naver.com/p/entry/place/13150353,,naver_shared_folder:맛집1(서울)
백년옥,순두부,서울 서초구 남부순환로 2407,,02-523-2860,f,2026-05-19 20:15:59.299477+09,2026-05-20 20:07:42.679518+09,37.4811951,127.0137749,두부요리,11678686,https://map.naver.com/p/entry/place/11678686,,naver_shared_folder:맛집1(서울)
화곡영양족발,족발,서울 강서구 초록마을로2길 48 1층 화곡영양족발,,0507-1319-7914,f,2026-05-19 20:15:59.2998+09,2026-05-20 20:07:42.679733+09,37.5432636,126.8434604,"족발,보쌈",31689760,https://map.naver.com/p/entry/place/31689760,,naver_shared_folder:맛집1(서울)
팀호완 강남역점,딤섬,"서울 강남구 테헤란로1길 29 지하1층, 지상1층",,0507-1384-3081,f,2026-05-19 20:15:59.300403+09,2026-05-20 20:07:42.680228+09,37.5001348,127.0273678,"딤섬,중식만두",1010110129,https://map.naver.com/p/entry/place/1010110129,,naver_shared_folder:맛집1(서울)
엉털네숯불꼼장어 목동점,꼼장어,서울 양천구 등촌로 34 1층,,02-2643-0244,f,2026-05-19 20:15:59.300902+09,2026-05-20 20:07:42.680673+09,37.5330721,126.8639479,"해물,생선요리",13401737,https://map.naver.com/p/entry/place/13401737,,naver_shared_folder:맛집1(서울)
덕수정,오징어볶음,서울 중구 정동길 41,,02-755-0180,f,2026-05-19 20:15:59.301489+09,2026-05-20 20:07:42.681106+09,37.5659000,126.9725500,한식,13006904,https://map.naver.com/p/entry/place/13006904,,naver_shared_folder:맛집1(서울)
충무칼국수,칼국수,서울 은평구 은평로 193 2층 충무칼국수,,02-3142-3198,f,2026-05-19 20:15:59.301914+09,2026-05-20 20:07:42.681316+09,37.6017926,126.9292597,"칼국수,만두",32174829,https://map.naver.com/p/entry/place/32174829,,naver_shared_folder:맛집1(서울)
이한진숙성회,회,서울 강동구 구천면로 247-1,,02-476-5007,f,2026-05-19 20:15:59.302837+09,2026-05-20 20:07:42.681749+09,37.5426313,127.1311643,생선회,1093811473,https://map.naver.com/p/entry/place/1093811473,,naver_shared_folder:맛집1(서울)
청진옥,해장국,서울 종로구 종로3길 32,,02-735-1690,f,2026-05-19 20:15:59.303237+09,2026-05-20 20:07:42.681964+09,37.5717535,126.9794207,해장국,13544101,https://map.naver.com/p/entry/place/13544101,,naver_shared_folder:맛집1(서울)
창성옥,해장국,서울 용산구 새창로 124-10 1층,,02-718-2878,f,2026-05-19 20:15:59.303738+09,2026-05-20 20:07:42.682176+09,37.5363864,126.9604033,한식,19873649,https://map.naver.com/p/entry/place/19873649,,naver_shared_folder:맛집1(서울)
용문해장국,해장국,"서울 용산구 효창원로 110 1층, 용문해장국 (용문동)",,02-712-6290,f,2026-05-19 20:15:59.304268+09,2026-05-20 20:07:42.682395+09,37.5379583,126.9608625,한식,19873286,https://map.naver.com/p/entry/place/19873286,,naver_shared_folder:맛집1(서울)
맛나닭가마솥치킨,치킨,서울 송파구 마천로51길 23 유니빌딩 1층,,02-449-6999,f,2026-05-19 20:15:59.304959+09,2026-05-20 20:07:42.682842+09,37.4969477,127.1522226,"치킨,닭강정",37249442,https://map.naver.com/p/entry/place/37249442,골뱅이소면 치킨,naver_shared_folder:맛집1(서울)
유진치킨 홍제점,치킨,서울 서대문구 세무서7길 13,,02-394-9300,f,2026-05-19 20:15:59.305239+09,2026-05-20 20:07:42.683068+09,37.5914939,126.9460886,"치킨,닭강정",1677226192,https://map.naver.com/p/entry/place/1677226192,"골목식당, 골뱅이",naver_shared_folder:맛집1(서울)
비아 톨레도 파스타바,양식,서울 용산구 원효로83길 7-2 1층,,0507-1384-0986,f,2026-05-19 20:15:59.306004+09,2026-05-20 20:07:42.683826+09,37.5400463,126.9677538,"스파게티,파스타전문",1018077796,https://map.naver.com/p/entry/place/1018077796,"만두같은파스타, 넷플 흑백요리사",naver_shared_folder:맛집1(서울)
남박,베트남음식,서울 용산구 한강대로76길 11-31,,0507-1377-9025,f,2026-05-19 20:15:59.30668+09,2026-05-20 20:07:42.684305+09,37.5422923,126.9735647,베트남음식,1416709100,https://map.naver.com/p/entry/place/1416709100,,naver_shared_folder:맛집1(서울)
츄르츄르라멘,일식 라멘,서울 용산구 청파로43길 11 1층 츄르츄르,,02-707-0410,f,2026-05-19 20:15:59.306924+09,2026-05-20 20:07:42.684526+09,37.5435886,126.9700063,일본식라면,1116654116,https://map.naver.com/p/entry/place/1116654116,,naver_shared_folder:맛집1(서울)
모코시야,소바,서울 용산구 백범로87길 50-1 1층,,0507-1398-8021,f,2026-05-19 20:15:59.307309+09,2026-05-20 20:07:42.684764+09,37.5394321,126.9694896,일본식라면,1204729925,https://map.naver.com/p/entry/place/1204729925,,naver_shared_folder:맛집1(서울)
